"","address","city","state","zip","longitude","latitude"
"1","2900 Denali","Anchorage","AK","99503",-149.8767,61.1953
"2","3850 Debarr Road","Anchorage","AK","99508",-149.809,61.2097
"3","1929 Airport Way","Fairbanks","AK","99701",-147.76,64.8366
"4","230 Connector Dr","Auburn","AL","36849",-85.4681,32.6033
"5","224 Daniel Payne Drive N","Birmingham","AL","35207",-86.8317,33.5615
"6","900 16th St S, Commons on Gree","Birmingham","AL","35294",-86.8037,33.5007
"7","5931 Alabama Highway, #157","Cullman","AL","35056",-86.8722,34.2068
"8","2190 Ross Clark Circle","Dothan","AL","36301",-85.4006,31.1904
"9","900 Tyson Rd","Hope Hull (Tyson)","AL","36043",-86.4209,32.1953
"10","4874 University Drive","Huntsville","AL","35816",-86.6556,34.7379
"11","2209 Se Walton Blvd","Bentonville","AR","72712",-94.1883,36.3351
"12","2589 W 6th St","Fayetteville","AR","72704",-94.1966,36.0534
"13","5910 Rogers Ave","Ft Smith","AR","72903",-94.368,35.3609
"14","310 S Shackleford Dr","Little Rock","AR","72211",-92.394,34.7512
"15","43 Bradley Cove Rd","Russellville","AR","72802",-93.09,35.2842
"16","4861 W Sunset Ave","Springdale","AR","72762",-94.1839,36.1753
"17","5104 N State Line","Texarkana","AR","71854",-94.0432,33.3622
"18","8300 State Highway 108","Texarkana","AR","71854",-93.9403,33.5054
"19","3000 Service Loop Rd","West Memphis","AR","72301",-90.1379,35.1532
"20","4121 W Anthem Way","Anthem","AZ","85086",-112.1495,33.871
"21","10623 E Main St","Apache Junction","AZ","85220",-111.6011,33.4146
"22","825 N Ocotillo Rd","Benson","AZ","86502",-110.3071,31.9809
"23","441 S Watson Rd","Buckeye","AZ","85326",-112.5564,33.4435
"24","1762 Highway 95","Bullhead City","AZ","86442",-114.5863,35.1215
"25","1630 W Highway 260","Camp Verde","AZ","86322",-111.8831,34.5767
"26","1851 E Florence Blvd","Casa Grande","AZ","85122",-111.7078,32.8796
"27","1750 W Chandler Blvd","Chandler","AZ","85224",-111.8727,33.3061
"28","7400 W Chandler Blvd","Chandler","AZ","85226",-111.9689,33.3054
"29","Indian Route 7","Chinle","AZ","86503",-109.5634,36.1558
"30","2211 State Route 89a","Cottonwood","AZ","86326",-112.0009,34.7213
"31","401 N Chiricahua Rd","Douglas","AZ","85607",-109.5605,31.3392
"32","16189 S Sunshine Blvd","Eloy","AZ","85131",-111.5504,32.7324
"33","2122 S Milton Road","Flagstaff","AZ","86001",-111.6613,35.179
"34","2306 E Lucky Lane","Flagstaff","AZ","86004",-111.6239,35.1923
"35","4650 N Highway 89 C-32","Flagstaff","AZ","86004",-112.4531,34.8138
"36","Northern Arizona University","Flagstaff","AZ","86011",-111.6556,35.1908
"37","17053 E Shea Blvd","Fountain Hills","AZ","85268",-111.7131,33.5722
"38","1368 N Cooper Rd","Gilbert","AZ","85233",-111.8072,33.3745
"39","1661 E Warner Rd","Gilbert","AZ","85296",-111.753,33.3356
"40","3971 South Gilbert Rd","Gilbert","AZ","85297",-111.7896,33.278
"41","4303 W Peoria Ave","Glendale","AZ","85302",-112.1524,33.5819
"42","9856 W Camelback Rd","Glendale","AZ","85305",-112.272,33.5083
"43","5161 W Thunderbird Rd","Glendale","AZ","85306",-112.1702,33.6107
"44","1218 N Litchfield Rd","Goodyear","AZ","85338",-112.3582,33.46
"45","18875 S I-19 Frontage Rd","Green Valley","AZ","85614",-110.9837,31.9074
"46","2510 Navajo Blvd","Holbrook","AZ","86025",-110.1372,34.9325
"47","3255 E Andy Devine","Kingman","AZ","86401",-114.0084,35.2198
"48","3300 E Andy Devine Ave","Kingman","AZ","86401",-114.0078,35.2204
"49","1620 McCulloch Blvd","Lake Havasu City","AZ","86403",-114.3438,34.4745
"50","Edison Rd & State Road 347","Maricopa","AZ","85139",-112.0478,33.0652
"51","1210 E Main","Mesa","AZ","85203",-111.805,33.4152
"52","1330 S Power Rd","Mesa","AZ","85206",-111.6849,33.3914
"53","1150 S Country Club","Mesa","AZ","85210",-111.8401,33.3942
"54","683 North Grand Ave","Nogales","AZ","85621",-110.9314,31.3441
"55","669 Scenic View Dr","Page","AZ","86040",-111.4752,36.9218
"56","312 S Beeline Hwy","Payson","AZ","85541",-111.3231,34.2383
"57","8737 Nw Grand Ave","Peoria","AZ","85345",-112.2458,33.5883
"58","8131 W Bell Rd","Peoria","AZ","85382",-112.231,33.6381
"59","2801 No Black Canyon","Phoenix","AZ","85009",-112.1126,33.4796
"60","5002 North Seventh St","Phoenix","AZ","85014",-112.065,33.5093
"61","3456 W Bethany Home","Phoenix","AZ","85017",-112.1331,33.524
"62","2120 E Cactus Rd","Phoenix","AZ","85022",-112.0364,33.5968
"63","2525 W Deer Valley Rd","Phoenix","AZ","85027",-112.1146,33.6838
"64","4120 N 51st Ave","Phoenix","AZ","85031",-112.1689,33.4954
"65","3205 E Bell Rd","Phoenix","AZ","85032",-112.0134,33.6405
"66","1401 N 75th Ave","Phoenix","AZ","85043",-112.2204,33.4639
"67","6700 West Latham","Phoenix","AZ","85043",-112.2034,33.4601
"68","9030 N Black Canyon Highway","Phoenix","AZ","85051",-112.1178,33.5679
"69","2717 W Bell Rd","Phoenix","AZ","85053",-112.1188,33.6398
"70","7000 E Mayo Blvd","Phoenix","AZ","85054",-111.9297,33.6553
"71","3160 W Carefree","Phoenix","AZ","85086",-112.1287,33.7984
"72","1230 Gail Gardner Way","Prescott","AZ","86305",-112.4864,34.5635
"73","7925 E Hwy 69","Prescott Valley","AZ","86312",-112.3265,34.5859
"74","1758 W Hunt Highway","San Tan Valley","AZ","85143",-111.5849,33.1798
"75","3315 N Scottsdale","Scottsdale","AZ","85251",-111.9261,33.4864
"76","9160 E Indian Bend Rd","Scottsdale","AZ","85256",-111.8836,33.5384
"77","7605 E McDowell Rd","Scottsdale","AZ","85260",-111.9174,33.4657
"78","4471 White Mountain Rd","Show Low","AZ","85901",-110.0239,34.2095
"79","2397 Fry Blvd","Sierra Vista","AZ","85635",-110.2737,31.5546
"80","392 W Hwy 264","St Michaels","AZ","86511",-109.1132,35.6584
"81","14799 West Grand Ave","Surprise","AZ","85374",-112.3774,33.6597
"82","650 N Scottsdale Rd","Tempe","AZ","85281",-111.9263,33.435
"83","825 S 48th St","Tempe","AZ","85281",-111.9763,33.4215
"84","1343 W Broadway","Tempe","AZ","85282",-111.9596,33.4074
"85","4403 S Rural Rd","Tempe","AZ","85282",-111.9264,33.385
"86","1994 W Baseline Rd","Tempe","AZ","85283",-111.9697,33.3783
"87","2875 W Highway 70","Thatcher","AZ","85552",-109.7484,32.8482
"88","2 Legacy Lane","Tuba City","AZ","86045",-111.5178,35.2812
"89","5000 Oracle Rd","Tucson","AZ","85704",-110.9782,32.2974
"90","1510 W Valencia Rd","Tucson","AZ","85706",-110.9966,32.1339
"91","2630 E Valencia Rd","Tucson","AZ","85706",-110.9326,32.1341
"92","6484 E Broadway","Tucson","AZ","85710",-110.8551,32.2209
"93","3702 E Irvington Rd","Tucson","AZ","85714",-110.9122,32.1631
"94","University of Arizona - Park Stu","Tucson","AZ","85721",-110.9461,32.2074
"95","4920 W Ina Rd","Tucson","AZ","85741",-111.0684,32.3376
"96","555 N Freeway","Tucson","AZ","85745",-110.9833,32.231
"97","1010 N Tegner Rd","Wickenburg","AZ","85390",-112.738,33.9807
"98","400 Transcon Lane","Winslow","AZ","86047",-110.6749,35.0167
"99","11121 Grand Ave","Youngtown","AZ","85363",-112.2997,33.6055
"100","1435 E 16th St","Yuma","AZ","85365",-114.6055,32.6985
"101","Marine Corps Air Station","Yuma","AZ","85365",-114.542,32.6781
"102","11255 E South Frontage Rd","Yuma","AZ","85367",-114.4443,32.6682
"103","14240 Us Highway 395","Adelanto","CA","92301",-117.3996,34.5091
"104","369 W Main St","Alhambra","CA","91801",-118.1309,34.0933
"105","1168 W Katella Ave","Anaheim","CA","92802",-117.927,33.8032
"106","1610 S Harbor Blvd","Anaheim","CA","92802",-117.9153,33.8085
"107","2080 S Harbor Blvd","Anaheim","CA","92802",-117.915,33.7967
"108","210 S Euclid St","Anaheim","CA","92802",-117.9415,33.8308
"109","1420 N State College Blvd","Anaheim","CA","92806",-117.8892,33.8551
"110","2005 E Katella Ave","Anaheim","CA","92806",-117.8891,33.8034
"111","2006 Somersville Rd","Antioch","CA","94509",-121.8387,38.0026
"112","4823 Lone Tree Way","Antioch","CA","94531",-121.7679,37.9629
"113","20242 Hwy 18","Apple Valley","CA","92307",-117.2214,34.5269
"114","18989 Bear Valley Road","Apple Valley","CA","92308",-117.2493,34.471
"115","7 East Huntington Dr","Arcadia","CA","91006",-118.0312,34.14
"116","16907 S Pioneer Blvd","Artesia","CA","90701",-118.0824,33.8775
"117","6910 El Camino Real","Atascadero","CA","93422",-120.6657,35.4868
"118","1601 Sycamore Ave","Atwater","CA","95301",-120.614,37.3457
"119","1800 Auburn Ravine Rd","Auburn","CA","95603",-121.0594,38.9232
"120","72415 Baker Blvd","Baker","CA","92309",-116.0705,35.2682
"121","2851 White Lane","Bakersfield","CA","93304",-119.0337,35.3176
"122","2684 Mt Vernon Ave","Bakersfield","CA","93306",-118.9676,35.3962
"123","2309 Panama Lane","Bakersfield","CA","93307",-119.0272,35.2959
"124","8011 E Brundage Lane","Bakersfield","CA","93307",-118.9183,35.3544
"125","17047 Zachary Avenue","Bakersfield","CA","93308",-119.1869,35.5347
"126","2627 Buck Owens Blvd","Bakersfield","CA","93308",-119.0432,35.3839
"127","35175 7th Standard Road","Bakersfield","CA","93308",-119.0763,35.4413
"128","4440 Gosford Rd","Bakersfield","CA","93311",-119.0921,35.315
"129","8710 Rosedale Hwy","Bakersfield","CA","93312",-119.0987,35.3835
"130","14550 Baldwin Pk Towne Center","Baldwin Park","CA","91706",-117.9592,34.0725
"131","6305 Joshua Palmer Way","Banning","CA","92220",-116.9459,33.9276
"132","1201 E Main St","Barstow","CA","92311",-117.0102,34.898
"133","2611 Fisher Rd","Barstow","CA","92311",-117.0828,34.8546
"134","2830 Lenwood Rd","Barstow","CA","92311",-117.0829,34.8492
"135","449 E 4th St","Beaumont","CA","92223",-116.9767,33.9262
"136","17230 Lakewood Blvd","Bellflower","CA","90706",-118.1426,33.8755
"137","9312 Rosecrans","Bellflower","CA","90706",-118.1356,33.904
"138","41196 Big Bear Blvd","Big Bear","CA","92315",-116.9033,34.2436
"139","1014 N Main St","Bishop","CA","93514",-118.3953,37.3715
"140","876 W Donlon St","Blythe","CA","92225",-114.606,33.6066
"141","7740 Orangethorpe","Buena Park","CA","90621",-117.9982,33.859
"142","2525 North Hollywood Way","Burbank","CA","91505",-118.3489,34.195
"143","1010 W Alameda Ave","Burbank","CA","91506",-118.3129,34.1633
"144","20672 Tracy Ave","Buttonwillow","CA","93206",-119.3979,35.4012
"145","110 W Cole Rd","Calexico","CA","92231",-115.5004,32.694
"146","1184 Calimesa Blvd","Calimesa","CA","92320",-117.0582,33.9956
"147","1659 E Dailey Dr","Camarillo","CA","93010",-119.0491,34.2183
"148","3446 Coach Lane","Cameron Park","CA","95682",-120.9674,38.6582
"149","2060 S Bascom Ave","Campbell","CA","95008",-121.9316,37.2858
"150","8330 Topanga Canyon Blvd","Canoga Park","CA","91306",-118.606,34.2205
"151","18932 W Soledad Canyon Rd","Canyon Country","CA","91351",-118.4655,34.4157
"152","1048 Carlsbad Village Dr","Carlsbad","CA","92008",-117.3433,33.1628
"153","7433 Fair Oaks Blvd","Carmichael","CA","95608",-121.3281,38.6356
"154","600 Carson Plaza Dr","Carson","CA","90746",-118.2642,33.8453
"155","31724 Castaic Rd","Castaic","CA","91384",-118.6212,34.495
"156","69050 Hwy 111","Cathedral City","CA","92234",-116.4603,33.7787
"157","1507 Herndon Rd","Ceres","CA","95307",-120.9742,37.6092
"158","675 Manzanita Court","Chico","CA","95926",-121.8449,39.7525
"159","12180 Central Ave","Chino","CA","91710",-117.6895,34.0326
"160","15459 Fairfield Ranch Rd","Chino Hills","CA","91710",-117.6898,33.9718
"161","110 Bonita Rd","Chula Vista","CA","91910",-117.0641,32.648
"162","692 E St","Chula Vista","CA","91910",-117.0974,32.6403
"163","2110 Birch Rd","Chula Vista","CA","91915",-116.9624,32.6214
"164","6215 Sunrise Blvd","Citrus Heights","CA","95610",-121.2716,38.6787
"165","5142 Triggs St","City of Commerce","CA","90022",-118.162,34.0111
"166","7268 E Gage Ave","City of Commerce","CA","90040",-118.127,33.9748
"167","820 South Indian Hill Blvd","Claremont","CA","91711",-117.7192,34.0806
"168","1151 Herndon Ave","Clovis","CA","93612",-119.6965,36.8375
"169","710 W Shaw Avenue","Clovis","CA","93612",-119.7242,36.8084
"170","25026 West Dorris","Coalinga","CA","93210",-120.2564,36.2542
"171","1190 S Mt Vernon","Colton","CA","92324",-117.3085,34.0487
"172","160 West Valley Blvd","Colton","CA","92324",-117.3253,34.067
"173","1313 Willow Pass Rd","Concord","CA","94520",-122.0523,37.9686
"174","260 Pittman Rd","Cordelia","CA","94585",-122.1262,38.2201
"175","2120 South Avenue","Corning","CA","96021",-122.1947,39.9065
"176","165 McKinley St","Corona","CA","92879",-117.5168,33.8851
"177","2379 Compton Ave","Corona","CA","92881",-117.5375,33.8432
"178","1833 W 6th St","Corona","CA","92882",-117.6019,33.8793
"179","3170 Harbor Blvd","Costa Mesa","CA","92626",-117.9193,33.6857
"180","1225 5th St","Crescent City","CA","95531",-124.1953,41.7555
"181","10700 Jefferson Blvd","Culver City","CA","90230",-118.3934,34.0041
"182","#2 Serra Monte","Daly City","CA","94015",-122.4713,37.6751
"183","34242 Del Obispo","Dana Point","CA","92629",-117.6867,33.4657
"184","2203 via De La Valle","Del Mar","CA","92014",-117.2559,32.9795
"185","14390 County Line Rd","Delano","CA","93215",-119.2496,35.7904
"186","1250 Stratford Ave","Dixon","CA","95620",-121.8392,38.458
"187","8350 E Firestone Blvd","Downey","CA","90241",-118.1321,33.9395
"188","1060 Huntington Dr","Duarte","CA","91010",-117.9827,34.1395
"189","2642 Jamacha Rd","El Cajon","CA","92019",-116.9319,32.7439
"190","2691 Navajo Rd","El Cajon","CA","92020",-117.0017,32.8018
"191","1202 W Main St","El Cajon","CA","92021",-116.978,32.795
"192","665 N Mollison Ave","El Cajon","CA","92021",-116.951,32.8037
"193","1445 Ocotillo Drive","El Centro","CA","92243",-115.5686,32.7768
"194","3403 Dogwood Ave","El Centro","CA","92243",-115.5349,32.7628
"195","11344 San Pablo Ave","El Cerrito","CA","94530",-122.3154,37.9211
"196","3540 N Peck Rd","El Monte","CA","91731",-118.0249,34.072
"197","9804 E Flair Drive","El Monte","CA","91731",-118.0552,34.0721
"198","2555 El Segundo Blvd","El Segundo","CA","90245",-118.3754,33.9165
"199","8707 Elk Grove Blvd","Elk Grove","CA","95624",-121.3807,38.409
"200","1776 Powell Street","Emeryville","CA","94608",-122.2959,37.8382
"201","135 Encinitas Blvd","Encinitas","CA","92024",-117.2899,33.0487
"202","510 W Mission Ave","Escondido","CA","92025",-117.0923,33.1282
"203","136 5th St","Eureka","CA","95501",-124.1699,40.8014
"204","1360 Holiday Lane","Fairfield","CA","94534",-122.0655,38.2569
"205","2980 Travis Blvd","Fairfield","CA","94534",-122.0649,38.2583
"206","713 South Main St","Fallbrook","CA","92028",-117.2514,33.3765
"207","1011 Riley Street","Folsom","CA","95630",-121.1699,38.6713
"208","17009-A Valley Blvd","Fontana","CA","92335",-117.4334,34.0704
"209","13479 Baseline Ave","Fontana","CA","92336",-117.5116,34.1214
"210","26712 Portola Parkway","Foothill Ranch","CA","92610",-117.6648,33.6803
"211","16205 Brookhurst St","Fountain Valley","CA","92708",-117.9547,33.7275
"212","160 N 10th Street","Fowler","CA","93625",-119.6838,36.628
"213","5280 Mowry Ave","Fremont","CA","94538",-122.0006,37.5336
"214","46645 Mission Blvd","Fremont","CA","94539",-121.9279,37.4912
"215","141 Abby St","Fresno","CA","93701",-119.7894,36.744
"216","3120 N Blackstone Ave","Fresno","CA","93703",-119.7905,36.7784
"217","2568 S East Ave","Fresno","CA","93706",-119.7718,36.7075
"218","1110 East Shaw St","Fresno","CA","93710",-119.7695,36.8089
"219","1746 W Shaw Ave","Fresno","CA","93711",-119.8244,36.8084
"220","30 E Herndon Ave","Fresno","CA","93720",-119.7835,36.8376
"221","530 South Clovis Ave","Fresno","CA","93727",-119.7002,36.7379
"222","1121 N Parkway Dr","Fresno","CA","93728",-119.8301,36.7566
"223","901 N Main St","Ft Bragg","CA","95437",-123.8059,39.4518
"224","2920 E Nutwood Ave","Fullerton","CA","92831",-117.8793,33.878
"225","1101 S Harbor Blvd","Fullerton","CA","92832",-117.9243,33.861
"226","1055 C St","Galt","CA","95632",-121.2982,38.2531
"227","13302 Harbor Blvd","Garden Grove","CA","92843",-117.9203,33.7696
"228","18620 S Western Ave","Gardena","CA","90248",-118.3091,33.8615
"229","8425 San Ysidro Ave","Gilroy","CA","95020",-121.5653,37.0239
"230","546 W Baseline Rd","Glendora","CA","91740",-117.8726,34.1213
"231","12820 St Hwy 33","Gustine","CA","95322",-121.0158,37.1031
"232","1150 So Seventh Ave","Hacienda Heights","CA","91745",-117.9888,34.0183
"233","1635 Glendale Ave","Hanford","CA","93230",-119.672,36.3202
"234","13201 Hawthorne Blvd","Hawthorne","CA","90250",-118.3528,33.9123
"235","14301 Inglewood","Hawthorne","CA","90250",-118.3613,33.9018
"236","30163 Industrial","Hayward","CA","94544",-122.0659,37.609
"237","2675 W Florida Ave","Hemet","CA","92545",-116.9997,33.7474
"238","13165 Main St","Hesperia","CA","92345",-117.3759,34.4267
"239","6100 Sunset","Hollywood","CA","90028",-118.3223,34.098
"240","18477 Beach Blvd","Huntington Beach","CA","92648",-117.989,33.6942
"241","82120 Hwy 111","Indio","CA","92201",-116.2318,33.7149
"242","14962 Sand Canyon Dr","Irvine","CA","92618",-117.7595,33.6762
"243","200 S Hwy 49","Jackson","CA","95642",-120.7731,38.3469
"244","27585 Bernard Drive","Kettleman City","CA","93239",-119.9603,35.9881
"245","1129 Broadway","King City","CA","93930",-121.1378,36.2053
"246","801 Sierra","Kingsburg","CA","93631",-119.5599,36.5179
"247","1150 S Beach Blvd","La Habra","CA","90631",-117.9678,33.918
"248","4235 Spring St","La Mesa","CA","91941",-117.0147,32.7557
"249","15553 Valley Blvd","La Puente","CA","91744",-117.9593,34.0209
"250","31760 Grape St","Lake Elsinore","CA","92532",-117.2933,33.6576
"251","23515 El Toro Rd","Lake Forest","CA","92630",-117.6992,33.6217
"252","13584 Camino Canada","Lakeside","CA","92040",-116.9013,32.8262
"253","2634 E Carson St","Lakewood","CA","90712",-118.1606,33.8324
"254","5520 South Street","Lakewood","CA","90713",-118.1243,33.8603
"255","11605 Carson St","Lakewood","CA","90715",-118.0864,33.8315
"256","1028 West Ave I","Lancaster","CA","93534",-118.1494,34.7034
"257","2005 W Ave K","Lancaster","CA","93536",-118.1659,34.6751
"258","16851 Harlan Rd","Lathrop","CA","95330",-121.2936,37.81
"259","9046 Loop Rd E","Lebec","CA","93243",-118.4894,35.132
"260","701 E Kettleman Lane","Lodi","CA","95240",-121.2593,38.1163
"261","15237 Thornton Road","Lodi","CA","95242",-121.3936,38.1186
"262","601 N Long Beach Blvd","Long Beach","CA","90802",-118.1895,33.7741
"263","5570 Pacific Coast Highway","Long Beach","CA","90804",-118.1235,33.7759
"264","3333 Atlantic Ave","Long Beach","CA","90807",-118.185,33.8176
"265","2860 N Bellflower Blvd","Long Beach","CA","90815",-118.1252,33.808
"266","400 N Vermont Avenue","Los Angeles","CA","90004",-118.2917,34.0778
"267","635 S Vermont Ave","Los Angeles","CA","90005",-118.2917,34.0623
"268","3750 Wilshire Blvd","Los Angeles","CA","90010",-118.3078,34.0617
"269","530 Ramirez St","Los Angeles","CA","90012",-118.2318,34.0548
"270","3740 S Crenshaw Blvd","Los Angeles","CA","90016",-118.3351,34.0185
"271","888 S Figueroa St","Los Angeles","CA","90017",-118.2627,34.0463
"272","4760 East Cesar E Chavez Avenue","Los Angeles","CA","90022",-118.1629,34.0406
"273","5751 Sunset Blvd","Los Angeles","CA","90028",-118.3148,34.0981
"274","5535 W Century","Los Angeles","CA","90045",-118.3774,33.9454
"275","8601 S Bellanca Ave","Los Angeles","CA","90045",-118.3805,33.9598
"276","11700 Wilmington Ave","Los Angeles","CA","90059",-118.2391,33.9273
"277","3060 San Fernando Rd","Los Angeles","CA","90065",-118.2451,34.1141
"278","1491 West Pacheco","Los Banos","CA","93635",-120.8778,37.0568
"279","2160 E Pacheco Blvd","Los Banos","CA","93635",-120.8207,37.0571
"280","I-5 Hwy 46","Lost Hills","CA","93249",-119.8676,35.6149
"281","11195 Long Beach Blvd","Lynwood","CA","90262",-118.2114,33.9296
"282","22717 Ave 18 1/2","Madera","CA","93637",-120.1341,37.0182
"283","1135 S Main St","Manteca","CA","95336",-121.2161,37.7867
"284","110 Reservation Road","Marina","CA","93933",-121.8029,36.6959
"285","630 Tenth St","Marysville","CA","95901",-121.5937,39.1455
"286","5900 Atlantic Blvd","Maywood","CA","90270",-118.1856,33.9871
"287","1500 Ana Sparks Way","Mckinleyville","CA","95519",-124.1026,40.9328
"288","90480 66th Ave","Mecca","CA","92254",-116.0898,33.5712
"289","1128 W 13th St","Merced","CA","95341",-120.4953,37.3006
"290","333 S Abbott","Milpitas","CA","95035",-121.9129,37.4254
"291","6285 Pats Ranch Road, Suite A","Mira Loma","CA","91752",-117.5439,33.9739
"292","24445 Alicia Parkway","Mission Viejo","CA","92691",-117.6897,33.6072
"293","1525 McHenry Ave","Modesto","CA","95350",-120.994,37.666
"294","2052 W Orangeburg St","Modesto","CA","95350",-121.0298,37.6662
"295","110 McHenry St","Modesto","CA","95354",-120.9938,37.646
"296","16262 Sierra Hwy","Mojave","CA","93501",-118.1751,35.0569
"297","2727 via Campo","Montebello","CA","90640",-118.1257,34.0328
"298","2137 North Fremont St","Monterey","CA","93940",-121.8616,36.5964
"299","300 Fremont Street","Monterey","CA","93940",-121.8927,36.5953
"300","832 New Los Angeles Ave","Moorpark","CA","93021",-118.8672,34.2803
"301","24952 Sunnymead Blvd","Moreno Valley","CA","92553",-117.2274,33.9391
"302","875 Cochrane Rd","Morgan Hill","CA","95037",-121.655,37.1515
"303","25365 Madison Ave","Murrieta","CA","92562",-117.1973,33.5544
"304","Highway 79 & Benton Rd","Murrieta","CA","92563",-117.1249,33.5921
"305","63690 20th Ave","N Palm Springs","CA","92258",-116.5506,33.9055
"306","1000 Imola Ave","Napa","CA","94559",-122.2741,38.2805
"307","1904 Sweetwater Rd","National City","CA","91950",-117.0791,32.6613
"308","424 W Mile of Cars","National City","CA","91950",-117.1059,32.6608
"309","1400 J St","Needles","CA","92363",-114.6117,34.8391
"310","2830 Camino Del Rios North","Newbury Park","CA","91320",-118.9362,34.1906
"311","681 Newcastle Rd","Newcastle","CA","95658",-121.1312,38.8698
"312","25341 Chiquella Dr","Newhall","CA","91381",-118.5671,34.3785
"313","11377 Burbank Blvd","No Hollywood","CA","91601",-118.3788,34.1722
"314","1360 N Hamner Ave","Norco","CA","92860",-117.5624,33.9017
"315","13136 Sherman Way","North Hollywood","CA","91605",-118.419,34.2012
"316","9001 Tampa Ave","Northridge","CA","91324",-118.5536,34.2341
"317","17018 Devonshire St","Northridge","CA","91325",-118.5029,34.2575
"318","12616 Pioneer Blvd","Norwalk","CA","90650",-118.0818,33.9168
"319","1555 East F St","Oakdale","CA","95361",-120.8297,37.7732
"320","40650 Hwy 41","Oakhurst","CA","93644",-119.6341,37.3881
"321","601 Hegenberger","Oakland","CA","94621",-122.1962,37.7453
"322","2273 El Camino Real","Oceanside","CA","92054",-117.3281,33.1855
"323","487 Harbor Dr","Oceanside","CA","92054",-117.3898,33.207
"324","605 College Blvd","Oceanside","CA","92057",-117.2899,33.2435
"325","2421 S Archibald","Ontario","CA","91761",-117.5931,34.0296
"326","1409 E 4th St","Ontario","CA","91762",-117.6255,34.0777
"327","502 N Vineyard","Ontario","CA","91764",-117.611,34.0684
"328","715 N Milliken Ave","Ontario","CA","91764",-117.5584,34.0701
"329","1695 E Lincoln Ave","Orange","CA","92865",-117.8363,33.835
"330","3000 W Chapman Ave","Orange","CA","92868",-117.8831,33.7879
"331","8841 Greenback Ln","Orangevale","CA","95662",-121.2284,38.6786
"332","2470 Oro Dam Blvd","Oroville","CA","95966",-121.5468,39.5058
"333","1255 N Oxnard","Oxnard","CA","93030",-119.1775,34.2139
"334","800 Garnet Ave","Pacific Beach","CA","92109",-117.2555,32.7965
"335","1201 N Palm Canyon Dr","Palm Springs","CA","92262",-116.5468,33.8395
"336","1257 Rancho Vista Blvd","Palmdale","CA","93551",-118.1531,34.6018
"337","37050 47th St E","Palmdale","CA","93552",-118.0453,34.5548
"338","8500 Van Nuys Blvd","Panorama City","CA","91402",-118.4488,34.2248
"339","2627 E Colorado Blvd","Pasadena","CA","91107",-118.0961,34.1461
"340","1310 24th St","Paso Robles","CA","93446",-120.6864,35.642
"341","15001 Rogers Rd","Patterson","CA","95363",-121.1761,37.4667
"342","570 E 4th St","Perris","CA","92570",-117.2189,33.7824
"343","4986 Petaluma Blvd","Petaluma","CA","94952",-122.6705,38.2695
"344","8600 E Whittier Blvd","Pico Rivera","CA","90660",-118.0886,34.0033
"345","611 Five Cities Dr","Pismo Beach","CA","93449",-120.6218,35.1356
"346","108 E Orangethorpe Ave","Placentia","CA","92870",-117.8725,33.8625
"347","99 Fair Lane Dr","Placerville","CA","95667",-120.8306,38.7226
"348","612 Contra Costa Blvd","Pleasant Hill","CA","94523",-122.0645,37.9748
"349","3012 W Temple Ave","Pomona","CA","91766",-117.7982,34.0407
"350","1504 Gillette Rd","Pomona","CA","91768",-117.7778,34.0742
"351","3801 W Temple Avenue","Pomona","CA","91768",-117.8165,34.0502
"352","2511 N Ventura Rd","Port Hueneme","CA","93041",-119.1951,34.176
"353","1262 W Henderson Ave","Porterville","CA","93257",-119.0457,36.0804
"354","360 Montgomery Ave","Porterville","CA","93257",-119.0253,36.0498
"355","1946 Main St","Ramona","CA","92065",-116.8833,33.033
"356","2474 Sunrise Blvd","Rancho Cordova","CA","95670",-121.2696,38.6141
"357","11899 Foothills Blvd","Rancho Cucamonga","CA","91730",-117.5456,34.1063
"358","29019 Western Avenue","Rancho Palos Verdes","CA","90275",-118.3097,33.7555
"359","48 Antelope Blvd","Red Bluff","CA","96080",-122.2288,40.1791
"360","2608 Hilltop Dr","Redding","CA","96002",-122.3581,40.5707
"361","542 E Cypress St","Redding","CA","96002",-122.362,40.571
"362","9 W Redlands Blvd","Redlands","CA","92373",-117.1827,34.0573
"363","1180 Alabama St","Redlands","CA","92374",-117.2087,34.0685
"364","1760 Aviation Blvd","Redondo Beach","CA","90278",-118.382,33.872
"365","1201 Broadway","Redwood City","CA","94063",-122.2142,37.4871
"366","7600 Reseda Blvd","Reseda","CA","91335",-118.5361,34.2084
"367","1377 W Foothill Blvd","Rialto","CA","92376",-117.3982,34.1067
"368","104 China Lake Blvd","Ridgecrest","CA","93555",-117.67,35.6224
"369","1501 N Jack Tone Road","Ripon","CA","95366",-121.1425,37.7569
"370","2955 Van Buren Blvd","Riverside","CA","92503",-117.4368,33.9086
"371","3530 Madison St","Riverside","CA","92504",-117.4061,33.9373
"372","1245 University Ave","Riverside","CA","92507",-117.3388,33.9757
"373","4460 Rocklin Rd","Rocklin","CA","95677",-121.2248,38.7885
"374","122 Sunrise Ave","Roseville","CA","95661",-121.2668,38.7432
"375","5181 Foothills Blvd","Roseville","CA","95747",-121.3115,38.7631
"376","1425 S Nogales","Rowland Heights","CA","91748",-117.889,33.9914
"377","6875 Valley Way","Rubidoux","CA","92509",-117.4359,34.0106
"378","300 Bercut Drive","Sacramento","CA","95814",-121.5022,38.5973
"379","3520 Auburn Blvd","Sacramento","CA","95821",-121.3825,38.6373
"380","5460 Florin Rd","Sacramento","CA","95823",-121.4418,38.4961
"381","1322 Howe Ave","Sacramento","CA","95825",-121.4154,38.5894
"382","7900 College Town Dr","Sacramento","CA","95826",-121.4106,38.5553
"383","7401 Elsie Ave","Sacramento","CA","95828",-121.4163,38.4743
"384","4441 E Commerce Way","Sacramento","CA","95834",-121.5261,38.6525
"385","5120 Interstate Ave","Sacramento","CA","95842",-121.3631,38.6596
"386","4324 Salida Blvd","Salida","CA","95368",-121.0755,37.7015
"387","1255 De La Torre","Salinas","CA","93905",-121.6216,36.6591
"388","2005 N Main Street","Salinas","CA","93906",-121.6562,36.7217
"389","975 E Blanco Rd","Salinas","CA","93906",-121.6364,36.6563
"390","702 E Highland Ave","San Bernardino","CA","92404",-117.2724,34.1359
"391","5975 N Palm Ave","San Bernardino","CA","92407",-117.3621,34.1899
"392","529 Avenida Pico","San Clemente","CA","92672",-117.6234,33.4381
"393","2445 El Cajon Blvd","San Diego","CA","92104",-117.1383,32.7552
"394","4365 University Ave","San Diego","CA","92105",-117.1006,32.7496
"395","1601 Rosecrans St","San Diego","CA","92106",-117.2269,32.7274
"396","1065 Camino Del Rio","San Diego","CA","92108",-117.153,32.7669
"397","7676 Friars Rd","San Diego","CA","92108",-117.158,32.7722
"398","3704 Camino Del Rio W","San Diego","CA","92110",-117.205,32.7553
"399","3920 W Point Loma","San Diego","CA","92110",-117.2208,32.7551
"400","5812 Hardy Ave","San Diego","CA","92115",-117.0716,32.7726
"401","4280 Clairemont Mesa Blvd","San Diego","CA","92117",-117.2011,32.8327
"402","6970 Alvarado","San Diego","CA","92120",-117.0479,32.774
"403","6908 Miramar Road","San Diego","CA","92121",-117.168,32.8783
"404","5445 Kearny Villa Rd","San Diego","CA","92123",-117.1388,32.8343
"405","16686 Bernardo Center Dr","San Diego","CA","92128",-117.0763,33.0164
"406","9898 Mira Mesa Blvd","San Diego","CA","92131",-117.1129,32.9168
"407","Mcas Miramar","San Diego","CA","92145",-117.1441,32.8701
"408","2420 Coronado Ave","San Diego","CA","92154",-117.0803,32.5765
"409","548 W Arrow Hwy","San Dimas","CA","91773",-117.8174,34.1039
"410","1041 Truman Street","San Fernando","CA","91340",-118.4405,34.2831
"411","816 Mission St","San Francisco","CA","94103",-122.4046,37.7843
"412","495 Beach St","San Francisco","CA","94133",-122.4172,37.8071
"413","1290 North State St","San Jacinto","CA","92583",-116.9721,33.8042
"414","1390 South First St","San Jose","CA","95110",-121.8739,37.3165
"415","1490 N 1st St","San Jose","CA","95112",-121.9106,37.3632
"416","1140 Hillsdale Ave","San Jose","CA","95118",-121.8809,37.2746
"417","1001 E Capitol","San Jose","CA","95121",-121.8232,37.2991
"418","2401 Lanai Ave","San Jose","CA","95122",-121.8293,37.3207
"419","1015 Blossom Hill Rd","San Jose","CA","95123",-121.8702,37.2505
"420","910 Saratoga Ave","San Jose","CA","95129",-121.9773,37.3099
"421","2077 N 1st St","San Jose","CA","95131",-121.9194,37.3746
"422","2484 Berryessa Rd","San Jose","CA","95133",-121.8611,37.3861
"423","1803 Marina Blvd","San Leandro","CA","94577",-122.1705,37.7089
"424","15015 Freedom Ave","San Leandro","CA","94578",-122.1243,37.7093
"425","208 Madonna Rd","San Luis Obispo","CA","93405",-120.6766,35.2638
"426","731 W San Marcos Blvd","San Marcos","CA","92069",-117.1799,33.1368
"427","2920 S Norfolk","San Mateo","CA","94403",-122.2848,37.5459
"428","2526 San Pablo","San Pablo","CA","94806",-122.3305,37.9553
"429","130 E Calle Primero","San Ysidro","CA","92173",-117.0442,32.5505
"430","536 Academy Ave","Sanger","CA","93657",-119.5564,36.7087
"431","2314 E 17th St","Santa Ana","CA","92701",-117.8336,33.7598
"432","2530 S Bristol Street","Santa Ana","CA","92704",-117.8854,33.7134
"433","1501 W 17th St","Santa Ana","CA","92706",-117.8884,33.7601
"434","3614 State St","Santa Barbara","CA","93105",-119.7404,34.4405
"435","1745 El Camino Real","Santa Clara","CA","95050",-121.9564,37.3524
"436","3715 El Camino Real","Santa Clara","CA","95050",-121.9987,37.3523
"437","16401 Delone St","Santa Clarita","CA","91387",-118.4228,34.4238
"438","1515 Ocean St","Santa Cruz","CA","95060",-122.0235,36.9852
"439","1019 East Main St","Santa Maria","CA","93454",-120.4198,34.953
"440","1560 Lincoln Blvd","Santa Monica","CA","90401",-118.4889,34.0174
"441","327 S Palm Ave","Santa Paula","CA","93060",-119.0692,34.3463
"442","1000 W Steele Lane","Santa Rosa","CA","95403",-122.7273,38.4599
"443","115 Baker Ave","Santa Rosa","CA","95407",-122.7142,38.4213
"444","140 Town Center Pkwy","Santee","CA","92071",-116.988,32.8421
"445","2940 Westminster Ave","Seal Beach","CA","90740",-118.0802,33.7595
"446","2763 Highland Ave","Selma","CA","93662",-119.6288,36.5743
"447","5525 N Sepulveda Blvd","Sherman Oaks","CA","91411",-118.4662,34.171
"448","2460 N Sycamore","Simi Valley","CA","93065",-118.7438,34.2798
"449","3064 H De La Rosa Sr Street","Soledad","CA","93960",-121.3216,36.4175
"450","5811 E Firestone Blvd","South Gate","CA","90280",-118.1645,33.9492
"451","2870 S Lake Tahoe Blvd","South Lake Tahoe","CA","96150",-119.9777,38.9344
"452","10 Airport Blvd","South San Francisco","CA","94080",-122.4084,37.6502
"453","12924 Beach Blvd","Stanton","CA","90680",-117.9927,33.7743
"454","642 West Charter Way","Stockton","CA","95206",-121.2959,37.9372
"455","2670 W March Lane","Stockton","CA","95207",-121.3417,37.9846
"456","4747 Pacific Ave","Stockton","CA","95207",-121.313,37.9917
"457","3950 Waterloo Rd","Stockton","CA","95215",-121.2471,37.9865
"458","5033 S Hwy 99 E Frontage Rd","Stockton","CA","95215",-121.2206,37.9031
"459","8022 Vineland Ave","Sun Valley","CA","91352",-118.3703,34.2161
"460","814 Ahwanee Ave","Sunnyvale","CA","94085",-122.0282,37.3958
"461","311 S Mathilda","Sunnyvale","CA","94086",-122.0351,37.375
"462","12861 Encinitas Ave","Sylmar","CA","91342",-118.478,34.3031
"463","13201 Gladstone Ave","Sylmar","CA","91342",-118.4282,34.3108
"464","9000 Magellan St","Tehachapi","CA","93561",-118.4469,35.1409
"465","28915 Rancho California Road","Temecula","CA","92590",-117.1535,33.4993
"466","5603 Rosemead Blvd","Temple City","CA","91780",-118.0736,34.1015
"467","72244 Varner Rd","Thousand Palms","CA","92276",-116.403,33.8185
"468","21270 Hawthorne Blvd","Torrance","CA","90503",-118.3532,33.8356
"469","3060 Sepulveda Blvd","Torrance","CA","90505",-118.3406,33.8243
"470","3718 No Tracy Blvd","Tracy","CA","95304",-121.4351,37.7635
"471","795 E Prosperity Ave","Tulare","CA","93274",-119.337,36.2258
"472","1991 Lander Ave","Turlock","CA","95380",-120.849,37.4756
"473","1571 El Camino Real","Tustin","CA","92780",-117.8139,33.7334
"474","73669-91 Twentynine Palms Hwy","Twentynine Palms","CA","92277",-116.055,34.1356
"475","105 Pomeroy","Ukiah","CA","95482",-123.1981,39.1515
"476","825 W Foothill Blvd","Upland","CA","91786",-117.6616,34.107
"477","1701 E Monte Vista Ave","Vacaville","CA","95688",-121.9587,38.3708
"478","27541 Wayne Mills Place","Valencia","CA","91355",-118.5814,34.4223
"479","250 Fairgrounds Dr","Vallejo","CA","94589",-122.231,38.1241
"480","4355 Sonoma Blvd","Vallejo","CA","94589",-122.2562,38.136
"481","14445 Sherman Way","Van Nuys","CA","91405",-118.4474,34.2012
"482","15540 Roscoe Bouleva","Van Nuys","CA","91406",-118.4924,34.2003
"483","16575 Sherman Way","Van Nuys","CA","91406",-118.4941,34.2012
"484","2148 E Harbor","Ventura","CA","93001",-119.1838,34.1791
"485","14244 Valley Center Dr","Victorville","CA","92392",-117.3208,34.5099
"486","2332 South Mooney","Visalia","CA","93277",-119.3137,36.3093
"487","200 S Akers St","Visalia","CA","93291",-119.3496,36.329
"488","540 W Vista Way","Vista","CA","92083",-117.2522,33.1962
"489","1235 Harbor Blvd","W Sacramento","CA","95691",-121.5487,38.5736
"490","132 N Grand Ave","W Covina","CA","91791",-117.8724,34.0735
"491","1804 Highway 46","Wasco","CA","93280",-119.346,35.602
"492","645 N Azusa","West Covina","CA","91791",-117.9078,34.0821
"493","Joe's Truck Plaza, 4415 Howard R","Westley","CA","95387",-121.2669,37.5407
"494","1060 Tiverton Ave","Westwood","CA","90024",-118.4431,34.0608
"495","11891 Whittier Blvd","Whittier","CA","90601",-118.0494,33.9792
"496","8425 S Pioneer Blvd","Whittier","CA","90606",-118.0816,33.9683
"497","23857 Clinton Keith Rd","Wildomar","CA","92595",-117.2434,33.5969
"498","1440 W Pacific Coast","Wilmington","CA","90744",-118.2835,33.7907
"499","21 Bernard Court","Woodland","CA","95695",-121.7826,38.7002
"500","1568 E Main St","Woodland","CA","95776",-121.7484,38.6773
"501","20137 Ventura Blvd","Woodland Hills","CA","91364",-118.5721,34.1706
"502","22027 Burbank Blvd","Woodland Hills","CA","91364",-118.6068,34.172
"503","22611 Oak Crest Circle","Yorba Linda","CA","92887",-117.7438,33.8726
"504","33540 Yucaipa Blvd","Yucaipa","CA","92399",-117.0722,34.034
"505","56895 29 Palms Hwy","Yucca Valley","CA","92284",-116.4232,34.1199
"506","14400 E 6th Ave","Aurora","CO","80011",-104.8204,39.7256
"507","16751 E 32nd Ave","Aurora","CO","80011",-104.793,39.7619
"508","1505 S Havana","Aurora","CO","80012",-104.8659,39.6894
"509","2905 Baseline Rd","Boulder","CO","80303",-105.2558,40.0002
"510","415 S Lincoln Street","Burlington","CO","80807",-102.2788,39.2973
"511","3205 I-70 Business Loop","Clifton","CO","81520",-108.4577,39.0881
"512","315 W Bijou St","Colorado Springs","CO","80905",-104.831,38.837
"513","1450 Harrison Rd","Colorado Springs","CO","80906",-104.7997,38.796
"514","302 N Academy Blvd","Colorado Springs","CO","80909",-104.7578,38.8373
"515","8125 N Academy Blvd","Colorado Springs","CO","80920",-104.8039,38.949
"516","2059 E Main St","Cortez","CO","81321",-108.5597,37.349
"517","1605 Nw Federal Blvd","Denver","CO","80204",-105.0252,39.7434
"518","900 West Alameda Ave","Denver","CO","80223",-104.9975,39.7112
"519","12090 E 40th Ave","Denver","CO","80239",-104.8476,39.7725
"520","666 Camino Del Rio","Durango","CO","81301",-107.8842,37.2714
"521","275 W Hampden Ave","Englewood","CO","80110",-104.9909,39.6533
"522","420 Centro Way","Fort Collins","CO","80524",-105.0075,40.5831
"523","6715 Mesa Ridge Parkway","Fountain","CO","80817",-104.6977,38.7183
"524","3291 Youngfield Service Road","Golden","CO","80401",-105.1451,39.763
"525","710 Horizon Dr","Grand Junction","CO","81501",-108.5441,39.107
"526","1164 Sargent Jon Stiles Drive","Highlands Ranch","CO","80129",-105.004,39.5483
"527","565 Union Blvd","Lakewood","CO","80228",-105.1319,39.7243
"528","3580 So Wadsworth","Lakewood","CO","80235",-105.0815,39.6502
"529","2455 6th St","Limon","CO","80828",-103.7121,39.2703
"530","1515 Venture Way","Montrose","CO","81401",-107.8652,38.4558
"531","3600 N Frwy","Pueblo","CO","81003",-104.6132,38.3123
"532","350 East 104th Ave","Thornton","CO","80233",-104.9823,39.8851
"533","9930 W 49th Ave","Wheatridge","CO","80033",-105.1088,39.7856
"534","100 Morning Sun Drive","Woodland Park","CO","80863",-105.0376,38.9745
"535","61 Newtown Rd","Danbury","CT","06810",-73.4197,41.4057
"536","111 Elm St","Enfield","CT","06082",-72.5814,41.998
"537","539 Flatbush Ave","Hartford","CT","06106",-72.7134,41.7424
"538","655 S Main St, Rt 17","Middletown","CT","06457",-72.6433,41.5545
"539","1467 Whalley Ave","New Haven","CT","06515",-72.9765,41.3343
"540","336 S Frontage Rd","New London","CT","06320",-72.1187,41.3694
"541","621 Queen St","Southington","CT","06489",-72.8736,41.6344
"542","35 Talcotville Rd","Vernon","CT","06066",-72.4969,41.8266
"543","939 Wolcott St","Waterbury","CT","06705",-73.0079,41.5666
"544","487 Sawmill Rd","West Haven","CT","06516",-72.9741,41.2709
"545","28 Flat Rock Place","Westbrook","CT","06498",-72.4449,41.2899
"546","1298 Silas Deane Hwy","Wethersfield","CT","06109",-72.6547,41.6849
"547","1250 Bladensburg Rd Ne","Washington","DC","20002",-76.9794,38.9063
"548","4445 Benning Rd Ne","Washington","DC","20019",-76.9386,38.8912
"549","80 MacIntosh Plaza","Newark","DE","19713",-75.6825,39.6758
"550","255 E Altamonte Dr","Altamonte Springs","FL","32701",-81.3842,28.6621
"551","351 E Main St","Apopka","FL","32703",-81.5041,28.6731
"552","1035 N Broadway","Bartow","FL","33830",-81.8435,27.9053
"553","12105 Us Highway 19 N","Bayonet Point","FL","34667",-82.6993,28.333
"554","3249 N Federal Hwy","Boca Raton","FL","33431",-80.0765,26.3802
"555","1311 W Palmetto Park","Boca Raton","FL","33486",-80.1121,26.3511
"556","610 44th Ave W","Bradenton","FL","34207",-82.5687,27.4624
"557","1301 W Brandon Blvd","Brandon","FL","33511",-82.3021,27.9376
"558","1306 Del Prado Blvd","Cape Coral","FL","33990",-81.9408,26.6283
"559","198 E Semoran Blvd","Casselberry","FL","32707",-81.3378,28.6588
"560","26489 Us Hwy 19 No","Clearwater","FL","33761",-82.734,28.0131
"561","25 Town Center Blvd","Clermont","FL","34711",-81.6643,28.3474
"562","1245 N Atlantic Ave","Cocoa Beach","FL","32931",-80.6106,28.3327
"563","1 Miracle Mile","Coral Gables","FL","33134",-80.255,25.7498
"564","1150 South Dixie Highway","Coral Gables","FL","33146",-80.275,25.716
"565","2380 Nw Hwy 19","Crystal River","FL","34428",-82.6104,28.9193
"566","44111 S Us 27","Davenport","FL","33837",-81.6515,28.2355
"567","5645 South University Dr","Davie","FL","33328",-80.2519,26.05
"568","2701 N Atlantic Ave","Daytona Beach","FL","32118",-81.0269,29.2646
"569","3162 S Atlantic Ave","Daytona Beach","FL","32118",-80.975,29.1619
"570","1206 N Woodland Blvd","Deland","FL","32720",-81.3042,29.0488
"571","1206 N Woodland Blvd","Deland","FL","32720",-81.3042,29.0488
"572","1910 South McCall Rd","Englewood","FL","34223",-82.3359,26.9381
"573","16150 Us Hwy 441","Eustis","FL","32726",-81.6898,28.8232
"574","401 Se 1st Avenue","Florida City","FL","33034",-80.475,25.4428
"575","3151 Nw 9th Ave","Ft Lauderdale","FL","33309",-80.1546,26.1669
"576","1661 S Federal Hwy","Ft Lauderdale","FL","33316",-80.1369,26.101
"577","8031 Summerlin Center Road","Ft Myers","FL","33907",-81.8881,26.5217
"578","9340 Marketplace Rd","Ft Myers","FL","33912",-81.8006,26.5483
"579","5000 N.federal Hwy","Ft Lauderdale","FL","33308",-80.1146,26.1899
"580","100 N Kings Highway","Ft Pierce","FL","34945",-80.399,27.4487
"581","543 N Eglin Parkway","Ft Walton Beach","FL","32547",-86.6003,30.4393
"582","35649 Us Hwy 27 North","Haines City","FL","33844",-81.6396,28.1176
"583","1025 W Hallandale Bch Blvd","Hallandale Beach","FL","33009",-80.1627,25.985
"584","1000 W 49th St","Hialeah","FL","33012",-80.3034,25.8666
"585","11701 Okeechobee Rd","Hialeah Gardens","FL","33018",-80.3577,25.8806
"586","2800 N 28th Terrace","Hollywood","FL","33020",-80.1649,26.0339
"587","404 S 60th Ave","Hollywood","FL","33023",-80.2075,26.0073
"588","1071 Airport Road","Jacksonville","FL","32218",-82.0614,29.831
"589","13874 Beach Blvd","Jacksonville","FL","32224",-81.4535,30.2877
"590","10445 Atlantic Blvd","Jacksonville","FL","32225",-81.5287,30.3239
"591","8409 Blanding Blvd","Jacksonville","FL","32244",-81.7393,30.1952
"592","8215 Dix Ellis Trail","Jacksonville","FL","32256",-81.5739,30.2201
"593","97630 Overseas Hwy","Key Largo","FL","33037",-80.4615,25.0759
"594","925 Duval St","Key West","FL","33040",-81.7995,24.5514
"595","2509 W Vine Street","Kissimmee","FL","34741",-81.4291,28.3046
"596","1515 E Osceola Parkway","Kissimmee","FL","34744",-81.3845,28.3406
"597","2051 E Irlo Bronson","Kissimmee","FL","34744",-81.3606,28.2904
"598","4783 W Irlo Bronson Hwy","Kissimmee","FL","34746",-81.4724,28.3294
"599","5855 W Irlo Bronson","Kissimmee","FL","34746",-81.5178,28.3329
"600","7632 W Irlo Bronson  Hwy","Kissimmee","FL","34747",-81.5922,28.336
"601","4541 MacEy Lane","Lake Wales","FL","33853",-81.6245,27.9647
"602","4541 Hypoluxo Road","Lake Worth","FL","33463",-80.1143,26.5721
"603","3204 N Us Hwy 98","Lakeland","FL","33805",-81.9678,28.0828
"604","4325 S Florida Ave","Lakeland","FL","33813",-81.9569,27.987
"605","940 Missouri Ave","Largo","FL","33770",-82.7682,28.0844
"606","2480 Citrus Blvd","Leesburg","FL","34748",-81.8964,28.8428
"607","6190 S State Rd 53","Madison","FL","32340",-83.3607,30.4012
"608","650 N State Road #7","Margate","FL","33063",-80.2047,26.2371
"609","4530 W New Haven","Melbourne","FL","32904",-80.7021,28.079
"610","75 E Merritt Island","Merritt Island","FL","32952",-80.6979,28.3614
"611","3600 Biscayne Blvd","Miami","FL","33137",-80.1895,25.8106
"612","8503 Sw 40th St","Miami","FL","33155",-80.3334,25.7332
"613","19313 So Dixie Hgwy","Miami","FL","33157",-80.3597,25.5888
"614","5825 Nw 36th St","Miami","FL","33166",-80.2913,25.8076
"615","7411 Nw 36th St","Miami","FL","33166",-80.3154,25.8094
"616","9545 W Flagler St","Miami","FL","33174",-80.3516,25.7691
"617","3850 Sw 137th Ave","Miami","FL","33175",-80.4159,25.7322
"618","15235 Sw 137th Ave","Miami","FL","33177",-80.4144,25.6254
"619","11350 Nw 41st St","Miami","FL","33178",-80.3806,25.8115
"620","12000 N Kendall Drive","Miami","FL","33186",-80.393,25.686
"621","7140 Collins Avenue","Miami Beach","FL","33141",-80.1205,25.8568
"622","19780 Nw 27th Avenue","Miami Gardens","FL","33056",-80.246,25.9542
"623","18600 N W 67th Ave","Miami Lakes","FL","33015",-80.3083,25.9435
"624","32670 Blue Star Hwy","Midway","FL","32343",-84.4287,30.4936
"625","1450 Miami Gardens Dr Ne","N Miami","FL","33179",-80.1721,25.9447
"626","12105 Biscayne Blvd","N Miami","FL","33181",-80.1642,25.8875
"627","200 N 3rd St","Neptune Beach","FL","32266",-81.3981,30.3235
"628","4442 Us Hwy 19 S","New Port Richey","FL","34652",-82.7338,28.2238
"629","1830 State Rd 44","New Smyrna Beach","FL","32168",-80.9426,29.0143
"630","911 E Commercial Blvd","Oakland Park","FL","33334",-80.135,26.189
"631","3801 West Silver Springs Blvd","Ocala","FL","34482",-82.1857,29.1864
"632","11261 W Colonial Dr","Ocoee","FL","34761",-81.5468,28.5516
"633","1012 Saxon Blvd","Orange City","FL","32763",-81.2836,28.9113
"634","440 S Semoran Blvd","Orlando","FL","32807",-81.3106,28.5376
"635","8076 S Orange Ave","Orlando","FL","32809",-81.364,28.4522
"636","5825 International","Orlando","FL","32819",-81.4598,28.4624
"637","7660 International","Orlando","FL","32819",-81.4708,28.4526
"638","8243 S John Young Pkwy","Orlando","FL","32819",-81.4275,28.445
"639","8747 International","Orlando","FL","32819",-81.4712,28.4391
"640","9880 International","Orlando","FL","32819",-81.4617,28.425
"641","11037 International Dr","Orlando","FL","32821",-81.456,28.4056
"642","5725 Tg Lee Blvd","Orlando","FL","32822",-81.3093,28.4604
"643","11915 E Colonial Dr","Orlando","FL","32825",-81.2051,28.5667
"644","12375 State Rd 535","Orlando","FL","32836",-81.506,28.3852
"645","110 Williamson Blvd","Ormond Beach","FL","32174",-81.1132,29.2559
"646","840 Palm Bay Rd Ne","Palm Bay","FL","32905",-80.6482,28.0352
"647","7 Kings Hwy","Palm Coast","FL","32137",-81.212,29.5559
"648","3000 S Congress Ave","Palm Springs","FL","33461",-80.0885,26.6329
"649","2438 Martin Luther King Blvd","Panama City","FL","32405",-85.6499,30.1926
"650","1290 N University Dr","Pembroke Pines","FL","33024",-80.2486,26.02
"651","10800 Pines Blvd, Suite #15","Pembroke Pines","FL","33026",-80.2906,26.0078
"652","4625 Mobile Highway","Pensacola","FL","32506",-87.2786,30.4367
"653","7748 N Davis Highway","Pensacola","FL","32514",-87.2214,30.5061
"654","535 West Nine Mile Road","Pensacola","FL","32534",-87.2813,30.5334
"655","2001 S Frontage Rd","Plant City","FL","33566",-82.1047,28.0351
"656","1727 N University","Plantation","FL","33322",-80.2571,26.1471
"657","12100 W Sunrise Blvd","Plantation","FL","33323",-80.3102,26.1458
"658","840 Cypress Blvd","Poinciana","FL","34759",-81.452,28.1463
"659","2671 N Federal Hwy","Pompano Beach","FL","33064",-80.099,26.2646
"660","1340 Tamiami Trail","Port Charlotte","FL","33948",-82.1445,27.0122
"661","1641 Dunlawton Ave","Port Orange","FL","32127",-81.0244,29.1154
"662","10111 S Us 1","Port St Lucie","FL","34952",-80.2935,27.2798
"663","4102 W Blue Heron Blvd","Riviera Beach","FL","33404",-80.1021,26.7834
"664","300 Civic Center Way","Royal Palm Beach","FL","33411",-80.2314,26.7051
"665","29933 State Road 52","San Antonio","FL","33576",-82.3226,28.3254
"666","3771 Orlando Dr","Sanford","FL","32773",-81.2868,28.7574
"667","3701 Bee Ridge Rd","Sarasota","FL","34233",-82.4942,27.2988
"668","4390 Us Highway 27","Sebring","FL","33870",-81.4981,27.5234
"669","5751 E Silver Springs Blvd","Silver Springs","FL","34488",-82.0546,29.2181
"670","1445 Wendy Court","Spring Hill","FL","34607",-82.6311,28.455
"671","1300 N Ponce De Leon Blvd","St Augustine","FL","32084",-81.3208,29.9042
"672","2455 State Road 16","St Augustine","FL","32084",-81.4139,29.918
"673","950 State Road 206 West","St Augustine","FL","32086",-81.3444,29.7489
"674","4999 34th St North","St Petersburg","FL","33714",-82.6795,27.8174
"675","2331 S Federal Hwy","Stuart","FL","34994",-80.2357,27.177
"676","3747 Sun City Center Blvd","Sun City","FL","33573",-82.3757,27.7123
"677","2690 N Monroe St","Tallahassee","FL","32303",-84.3007,30.4788
"678","875 Traditions Way","Tallahassee","FL","32306",-84.2974,30.4413
"679","5710 University Drive","Tamarac","FL","33321",-80.252,26.1953
"680","2004 N Dale Mabry Hwy","Tampa","FL","33607",-82.5055,27.9595
"681","5603 E Hillsborough","Tampa","FL","33610",-82.3934,27.9961
"682","1700 E Fowler Ave","Tampa","FL","33612",-82.44,28.0546
"683","1577 Bella Cruz Dr","The Villages","FL","32159",-81.9583,28.9515
"684","3500 Chaney Hwy","Titusville","FL","32780",-80.8478,28.5535
"685","1763 Tamiami Trail","Venice","FL","34293",-82.4904,27.2167
"686","8201 N Wickham Rd","Viera","FL","32940",-80.7116,28.2303
"687","2705 Okeechobee Blvd","W Palm Beach","FL","33409",-80.0951,26.7067
"688","894 Cypress Garden","Winter Haven","FL","33880",-81.7144,28.004
"689","2684 Lee Road","Winter Park","FL","32789",-81.3844,28.6057
"690","3026 Washington Rd","Augusta","GA","30907",-82.0463,33.5125
"691","2990 Us Hwy 17 South","Brunswick","GA","31523",-81.58,31.1399
"692","370 Millennium Blvd","Brunswick","GA","31525",-81.5019,31.2465
"693","309 Georgia Hwy 49 N","Byron","GA","31008",-83.789,32.6191
"694","3239 MacOn Rd","Columbus","GA","31907",-84.9422,32.4812
"695","2115 E 16th Ave","Cordele","GA","31015",-83.7468,31.9591
"696","1701 Browns Bridge Rd","Gainesville","GA","30501",-83.8453,34.2849
"697","4465 Jimmy Lee Smith Parkway","Hiram","GA","30141",-84.7534,33.8911
"698","1125 Bucksnort Road","Jackson","GA","30233",-84.1204,33.2261
"699","1222 Boone St","Kingsland","GA","31548",-81.6534,30.7884
"700","7001 Lake Park - Bellville Rd","Lake Park","GA","31636",-83.1897,30.6432
"701","1020 Tanger Rd","Locust Grove","GA","30248",-84.1222,33.3517
"702","5534 Jimmy Carter Blvd","Norcross","GA","30093",-84.2065,33.9092
"703","288 Resaca Beach Blvd","Resaca","GA","30735",-84.936,34.5871
"704","3944 Highway 17 S","Richmond Hill","GA","31324",-81.3276,31.9305
"705","6801 Abercorn St","Savannah","GA","31405",-81.1131,32.0146
"706","1 Gateway Blvd","Savannah","GA","31419",-81.2863,32.006
"707","2160 Scenic Highway N","Snellville","GA","30078",-84.018,33.8623
"708","5368 N Henry Blvd","Stockbridge","GA","30281",-84.2536,33.549
"709","2925 Lawrenceville Suwanee Rd","Suwanee","GA","30024",-84.0464,34.0283
"710","3600 Highway 77 South","Union Point","GA","30669",-83.1208,33.69
"711","1328 St Augustine Rd","Valdosta","GA","31602",-83.3293,30.844
"712","205 Lewers St","Honolulu","HI","96815",-157.8315,21.2785
"713","430 Kele St","Kahului, Maui","HI","96732",-156.4538,20.8872
"714","75-1027 Henry St","Kailua-Kona","HI","96740",-155.9889,19.6463
"715","45-480 Kaneohe Bay Drive, Ste B1","Kaneohe","HI","96744",-157.7988,21.4028
"716","4470 Kapolei Parkway, Ste 800","Kapolei","HI","96707",-158.0915,21.3289
"717","94-305 Kunia Road","Waipahu","HI","96797",-158.0338,21.3866
"718","4175 Highway 21","Brooklyn","IA","52211",-92.358,41.6927
"719","11820 Hickman Road","Clive","IA","50325",-93.7782,41.6148
"720","8200 Nw Blvd","Davenport","IA","52806",-90.5637,41.5575
"721","2580 Airport Way","Boise","ID","83705",-116.2135,43.5695
"722","611 N Overland Ave","Burley","ID","83318",-113.792,42.5628
"723","3512 Franklin Road","Caldwell","ID","83605",-116.6538,43.6628
"724","4310 Yellowstone Ave","Chubbuck","ID","83202",-112.4663,42.9113
"725","2300 N 4th St","Coeur D' Alene","ID","83814",-116.7808,47.6981
"726","950 Lindsey Blvd","Idaho Falls","ID","83401",-112.0517,43.5033
"727","3155 E Fairview Avenue","Meridian","ID","83642",-116.3552,43.6195
"728","Living Learning Community, Bldg","Moscow","ID","83844",-117.5856,47.0918
"729","607 Northside Blvd","Nampa","ID","83687",-116.5732,43.6019
"730","1670 Schneidmiller Ave","Post Falls","ID","83854",-116.9213,47.7121
"731","291 Pole Line Road","Twin Falls","ID","83301",-114.4757,42.5918
"732","140 Racehorse Drive","Alorton","IL","62205",-90.0975,38.5767
"733","17 W Algonquin Rd","Arlington Heights","IL","60005",-87.9832,42.0443
"734","4330 Fox Valley","Aurora","IL","60504",-88.3801,41.7722
"735","1130 S.illinois St","Belleville","IL","62220",-89.9831,38.5001
"736","701 Eldorado Rd","Bloomington","IL","61704",-88.9515,40.4735
"737","126 Frontage Road","Bolingbrook","IL","60440",-88.1835,41.5287
"738","1303 Armour Road","Bourbonnais","IL","60914",-87.8616,41.1626
"739","1380 Torrence Avenue","Calumet City","IL","60409",-87.5588,41.596
"740","1915 W Sycamore","Carbondale","IL","62901",-89.2405,37.7305
"741","363 S Schmale Road","Carol Stream","IL","60188",-88.1031,41.894
"742","200 Springhill Dr","Carpentersville","IL","60110",-88.2933,42.1057
"743","702 W Town Center Blvd","Champaign","IL","61822",-88.2542,40.1426
"744","522 Ramada Blvd","Collinsville","IL","62234",-90.0115,38.6789
"745","1307 N Keller Dr","Effingham","IL","62401",-88.5667,39.1399
"746","1701 West Evergreen Avenue","Effingham","IL","62401",-88.5723,39.135
"747","2447 Mannheim Road","Franklin Park","IL","60131",-87.8844,41.9233
"748","815 Hwy 24 W","Gilman","IL","60938",-87.9963,40.7559
"749","27 Junction Dr","Glen Carbon","IL","62034",-89.9552,38.7768
"750","6429 Grand Ave","Gurnee","IL","60031",-87.9612,42.3849
"751","1086 Lake St","Hanover Park","IL","60133",-88.1091,41.9672
"752","7627 W 95th Street","Hickory Hills","IL","60457",-87.8098,41.7187
"753","2063 Skokie Valley","Highland Park","IL","60035",-87.826,42.1898
"754","1175 North Roselle Road","Hoffman Estates","IL","60169",-88.0797,42.0492
"755","13240 S Illinois 47","Huntley","IL","60142",-88.4327,42.1375
"756","2531 Plainfield Road","Joliet","IL","60435",-88.1496,41.5709
"757","343 Civic Road","Lasalle","IL","61301",-89.0978,41.3678
"758","1407 W Hudson Blvd","Litchfield","IL","62056",-89.6724,39.1753
"759","364 Richmond Ave E","Mattoon","IL","61938",-88.3462,39.485
"760","8349 West North Avenue","Melrose Park","IL","60160",-87.8325,41.9084
"761","19099 S Old Lagrange Rd","Mokena","IL","60448",-87.8488,41.5431
"762","2601 52nd Avenue","Moline","IL","61265",-90.5004,41.4642
"763","4610 Broadway","Mt Vernon","IL","62864",-88.9572,38.3127
"764","412 S Lincolnway","N Aurora","IL","60542",-88.3224,41.7913
"765","115 Radio City Dr","N Pekin","IL","61554",-89.6357,40.607
"766","1615 N Main","Normal","IL","61761",-88.9956,40.5304
"767","4609 N Harlem Avenue","Norridge","IL","60706",-87.8072,41.9638
"768","737 W Hwy 50","O' Fallon","IL","62269",-89.9263,38.5886
"769","9217 S Cicero Ave","Oak Lawn","IL","60453",-87.741,41.7252
"770","711 North Harlem Avenue","Oak Park","IL","60302",-87.8052,41.8924
"771","17 W 660 22nd Street","Oakbrook Terrace","IL","60181",-87.9728,41.8562
"772","#20 Orland Square Drive","Orland Park","IL","60462",-87.8513,41.6186
"773","975 E Dundee Road","Palatine","IL","60074",-88.0208,42.1392
"774","1310 E Chain of Rocks Rd","Pontoon Beach","IL","62040",-90.0656,38.7611
"775","4111 Timberlake Drive","Pontoon Beach","IL","62040",-90.0718,38.7465
"776","7375 E State St","Rockford","IL","61108",-88.9728,42.27
"777","1812 W Main St","Salem","IL","62881",-88.9765,38.6238
"778","4824 No River Road","Schiller Park","IL","60176",-87.8616,41.9666
"779","16049 Willowbrook Rd","South Beloit","IL","61080",-89.0002,42.4928
"780","2905 Adlai Stevenson","Springfield","IL","62703",-89.6102,39.7582
"781","2599 W Wabash Avenue","Springfield","IL","62704",-89.7062,39.764
"782","1104 Tuscola Blvd","Tuscola","IL","61953",-88.27,39.7901
"783","4 Interstate Drive","Vandalia","IL","62471",-88.8573,39.0136
"784","890 Milwaukee Avenue","Vernon Hills","IL","60061",-87.945,42.2427
"785","959 N Ilinois Rt 3","Waterloo","IL","62298",-90.1636,38.3384
"786","3890 N Point Boulevard","Waukegan","IL","60085",-87.8982,42.3461
"787","7737 S Kingery Hwy","Willowbrook","IL","60527",-87.9438,41.7479
"788","1035 James Ave","Bedford","IN","47421",-86.5183,38.8676
"789","2160 N Walnut St","Bloomington","IN","47401",-86.5343,39.1842
"790","943 E Lewis & Clark Parkway","Clarksville","IN","47129",-85.7734,38.3078
"791","812 N Conner Court","Dale","IN","47523",-86.987,38.1841
"792","15876 W Commerce Rd","Daleville","IN","47334",-85.573,40.114
"793","19501 Elphers Rd","Evansville","IN","47711",-87.5508,38.1557
"794","3901 Hwy 41 N","Evansville","IN","47711",-87.5392,38.0116
"795","5212 Weston Rd","Evansville","IN","47713",-87.6381,37.9772
"796","351 N Green River Rd","Evansville","IN","47715",-87.4926,37.9799
"797","8695 Jack Carnes Way, N","French Lick","IN","47432",-86.6196,38.5501
"798","3150 Grant St","Gary","IN","46408",-87.356,41.5614
"799","1253 S Park Blvd","Greenwood","IN","46143",-86.0777,39.6156
"800","844 East 1250 S","Haubstadt","IN","47639",-87.552,38.1741
"801","3231 East 181st Street","Hebron","IN","46341",-87.2956,41.2893
"802","1720 West Thompson Rd","Indianapolis","IN","46217",-86.1905,39.6924
"803","2490 Post Rd","Indianapolis","IN","46219",-86.0097,39.8039
"804","4795 Kentucky Ave","Indianapolis","IN","46221",-86.2651,39.6986
"805","6241 Crawfordsville Rd","Indianapolis","IN","46224",-86.2689,39.8007
"806","3512 S Keystone Ave","Indianapolis","IN","46227",-86.1207,39.7147
"807","8901 Us 31 South","Indianapolis","IN","46227",-86.1277,39.637
"808","6288 E 82nd St","Indianapolis","IN","46250",-86.059,39.9054
"809","8808 N Michigan Rd","Indianapolis","IN","46268",-86.224,39.9142
"810","3850 Newton St","Jasper","IN","47546",-86.9379,38.4257
"811","4260 State Rd 26 E","Lafayette","IN","47905",-86.8257,40.4177
"812","1401 Ripley Street","Lake Station","IN","46405",-87.2399,41.586
"813","1524 W South St","Lebanon","IN","46052",-86.4857,40.0466
"814","720 E 81st St","Merrillville","IN","46410",-87.3316,41.4714
"815","5800 S Franklin St","Michigan City","IN","46360",-86.894,41.6671
"816","1989 South State Road 57","Oakland City","IN","47660",-87.0919,38.3946
"817","6171 Melton Dr","Portage","IN","46368",-87.1755,41.5985
"818","175 South Honeyrun Parkway","Scottsburg","IN","47170",-85.7867,38.6786
"819","102 Lee Blvd","Shelbyville","IN","46176",-85.7377,39.5257
"820","5300 S State Rt 3","Spiceland","IN","47385",-85.4141,39.8523
"821","3442 Us Highway 41","Terre Haute","IN","47802",-87.4158,39.426
"822","233 S 3rd St","Terre Haute","IN","47807",-87.414,39.4641
"823","2728 N 6th St","Vincennes","IN","47591",-87.5011,38.6913
"824","4982 North 350 East","Whiteland","IN","46184",-86.0356,39.5505
"825","204 Tuttle Creek Blvd","Manhattan","KS","66502",-96.5569,39.1802
"826","9001 W 63rd St","Merriam","KS","66203",-94.6896,39.0142
"827","10480 Metcalf","Overland Park","KS","66212",-94.6677,38.9387
"828","1500 Wannamaker Rd","Topeka","KS","66604",-95.7618,39.0397
"829","3210 Sw Topeka Blvd","Topeka","KS","66611",-95.6875,39.0101
"830","8030 E Kellogg Drive North","Wichita","KS","67208",-97.2439,37.6794
"831","5700 W Kellogg","Wichita","KS","67209",-97.4094,37.6733
"832","4024 E Harry St","Wichita","KS","67218",-97.2893,37.6646
"833","1748 Us Hwy 231 S","Beaver Dam","KY","42320",-86.8665,37.3903
"834","15236 State Route 180","Catlettsburg","KY","41129",-82.6989,38.3648
"835","2008 N Mulberry Ave","Elizabethtown","KY","42701",-85.8268,37.715
"836","4380 South Nashville Rd","Franklin","KY","42134",-86.5577,36.6686
"837","1956 Us Hwy 41 N","Henderson","KY","42420",-87.5754,37.8608
"838","1949 Nicholasville Rd","Lexington","KY","40503",-84.5161,38.0127
"839","1880 Newton Pike","Lexington","KY","40511",-84.4863,38.0959
"840","434 Eastern Parkway","Louisville","KY","40217",-85.7516,38.2117
"841","60 Ruby Drive","Madisonville","KY","42431",-87.4947,37.3276
"842","1610 Richmond St","Mt Vernon","KY","40456",-84.3314,37.3755
"843","18750 Herndon / Oak Grove Rd","Oak Grove","KY","42262",-87.4555,36.6964
"844","4545 Frederica Street","Owensboro","KY","42301",-87.1231,37.7263
"845","200 S Lakeview Dr","Shepherdsville","KY","40165",-85.7013,37.9937
"846","4030 Dutchman's Lane","St Matthews","KY","40207",-85.6334,38.234
"847","1670 Waddy Rd","Waddy","KY","40076",-85.0675,38.1622
"848","13019 Walton Verona","Walton","KY","41094",-84.6246,38.8582
"849","1832 Old Minden Road","Bossier City","LA","71111",-93.7148,32.5164
"850","9510 Greenwood Road","Greenwood","LA","71033",-93.9791,32.4436
"851","5910 Veterans","Metairie","LA","70003",-90.206,30.0057
"852","9080 Mansfield Rd","Shreveport","LA","71118",-93.7982,32.4085
"853","467 Memorial Dr","Chicopee Falls","MA","01020",-72.5774,42.1707
"854","152 Endicott St","Danvers","MA","01923",-70.9362,42.549
"855","243 William S Canning Blvd","Fall River","MA","02721",-71.1619,41.6751
"856","2173 Northampton St","Holyoke","MA","01040",-72.6299,42.1881
"857","160 Winthrop Ave","Lawrence","MA","01843",-71.1462,42.688
"858","38 Commercial Rd","Leominster","MA","01453",-71.7424,42.5334
"859","1284 Boston Rd","Springfield","MA","01119",-72.501,42.1405
"860","494 Lincoln St","Worcester","MA","01605",-71.7748,42.2947
"861","2095 West St","Annapolis","MD","21401",-76.5443,38.9846
"862","1995 E Joppa Rd","Baltimore","MD","21234",-76.5448,39.3992
"863","8025 Belair Road","Baltimore","MD","21236",-76.5073,39.3756
"864","781 Sunburst Highway","Cambridge","MD","21613",-76.061,38.5586
"865","8424 Baltimore Ave","College Park","MD","20740",-76.9327,38.9938
"866","1412 Merrit Boulevard","Dundalk","MD","21222",-76.5046,39.2783
"867","8493 Ocean Gateway","Easton","MD","21601",-76.0601,38.7823
"868","1803 Edgewood Rd","Edgewood","MD","21040",-76.3054,39.4531
"869","6400 Ridge Rd","Eldersburg","MD","21784",-76.9324,39.399
"870","Fort Meade/meade Main Exchange","Fort Meade","MD","20755",-76.7454,39.1094
"871","1207 West Patrick St","Frederick","MD","21701",-77.451,39.4185
"872","100 East Cedar Lane","Fruitland","MD","21826",-75.6126,38.3255
"873","6302 Ritchie Hwy","Glen Burnie","MD","21061",-76.6141,39.2044
"874","1630 Dual Hwy","Hagerstown","MD","21740",-77.693,39.6176
"875","1365 Mellon Rd","Hanover","MD","21076",-76.7106,39.1605
"876","314 Washington Blvd","Laurel","MD","20707",-76.6374,39.1559
"877","1239 National Hwy","Lavale","MD","21502",-78.8355,39.6371
"878","19290 Montgomery Village Ave","Montgomery Village","MD","20886",-77.2038,39.1724
"879","1 Center Drive","North East","MD","21901",-75.9481,39.6247
"880","1000 Starlite Plaza","Oakland","MD","21550",-79.4052,39.4113
"881","11201 Coastal Hwy","Ocean City","MD","21842",-75.0572,38.4179
"882","41 Heather Lane","Perryville","MD","21903",-76.0672,39.5888
"883","405 Punkin Court","Salisbury","MD","21804",-75.5416,38.3662
"884","15061 Georgia Ave","Silver Spring","MD","20853",-77.0766,39.103
"885","2975 Crain Highway","Waldorf","MD","20601",-76.9053,38.6317
"886","400 Englar Rd","Westminster","MD","21157",-76.9889,39.5846
"887","211 Court St","Auburn","ME","04210",-70.2311,44.0979
"888","123 Civic Center Dr","Augusta","ME","04330",-69.7926,44.3381
"889","120 Haskell Rd","Bangor","ME","04401",-68.7394,44.8315
"890","75 High St","Ellsworth","ME","04605",-68.4162,44.5396
"891","1091-1107 Congress St","Portland","ME","04102",-70.2849,43.655
"892","1220 Brighton Ave","Portland","ME","04102",-70.3278,43.6766
"893","1075 Commercial Street","Rockport","ME","04856",-69.0954,44.1299
"894","3310 Washtenaw Rd","Ann Arbor","MI","48104",-83.6943,42.2564
"895","4785 Beckley Road","Battle Creek","MI","49015",-85.2007,42.261
"896","2033 Rawsonville Road","Belleville","MI","48111",-83.5448,42.2165
"897","2701 East Grand River","East Lansing","MI","48823",-84.4573,42.7281
"898","4010 24th Avenue","Ft Gratiot","MI","48059",-82.4558,43.0253
"899","7800 West Grand River Ave","Grand Ledge","MI","48837",-84.6792,42.7869
"900","3127 Plainfield Ne","Grand Rapids","MI","49505",-85.6375,43.019
"901","631 East 24th Street","Holland","MI","49423",-86.0797,42.7759
"902","2560 Airport Road","Jackson","MI","49202",-84.4529,42.2707
"903","3817 Cork Street","Kalamazoo","MI","49001",-85.5319,42.2625
"904","3900 28th Street, Se","Kentwood","MI","49512",-85.5713,42.9125
"905","7330 W Saginaw Highway","Lansing","MI","48917",-84.6582,42.7411
"906","804 Us Highway 27 N","Marshall","MI","49068",-84.9652,42.2845
"907","1224 N Dixie Highway","Monroe","MI","48162",-83.3641,41.9257
"908","3520 Green Street","Muskegon","MI","49444",-86.2356,43.1889
"909","27750 Novi Rd","Novi","MI","48377",-83.476,42.49
"910","31831 Gratiot Ave","Roseville","MI","48066",-82.915,42.5309
"911","2435 Tittabawassee","Saginaw","MI","48604",-83.9642,43.4799
"912","44945 Woodridge","Sterling Heights","MI","48313",-82.9861,42.6265
"913","20565 Eureka Road","Taylor","MI","48180",-83.2352,42.1982
"914","878 Munson Ave","Traverse City","MI","49686",-85.5606,44.7496
"915","715 44th St S W","Wyoming","MI","49509",-85.6821,42.8843
"916","7805 150th St Nw","Apple Valley","MN","55124",-93.2231,44.7319
"917","8850 University Drive","Blaine","MN","55434",-93.2656,45.1304
"918","815 E 78th St","Bloomington","MN","55420",-93.2629,44.8619
"919","4209 W American Blvd","Bloomington","MN","55437",-93.3323,44.8576
"920","6405 James Circle N","Brooklyn Center","MN","55430",-93.3048,45.0716
"921","12950 Aldrich Ave S","Burnsville","MN","55337",-93.2907,44.769
"922","3565 Northdale Blvd","Coon Rapids","MN","55448",-93.3567,45.2075
"923","3050 White Bear Ave","Maplewood","MN","55109",-93.0176,45.0333
"924","255 N Century Ave","Maplewood","MN","55119",-92.9854,44.9471
"925","2700 E Lake St","Minneapolis","MN","55406",-93.2332,44.9484
"926","38681 Tanger Dr","N Branch","MN","55056",-92.9968,45.5091
"927","9020 Quaday Ave Ne","Otsego","MN","55330",-93.5643,45.2816
"928","286 17th Avenue Nw","Rochester","MN","55901",-92.4876,44.0266
"929","1226 S Broadway","Rochester","MN","55904",-92.4633,44.0053
"930","13450 Rogers Dr","Rogers","MN","55374",-93.5502,45.1987
"931","1203 Drury Lane","Arnold","MO","63010",-90.3782,38.4446
"932","1105 N 7 Hwy","Blue Springs","MO","64015",-94.2828,39.1205
"933","2335 W Hwy 76","Branson","MO","65616",-93.2632,36.6414
"934","161 West Dr","Cape Girardeau","MO","63701",-89.5589,37.3045
"935","1100 Knipp Street","Columbia","MO","65203",-92.3726,38.9668
"936","1717 W 5th St","Eureka","MO","63025",-90.6626,38.5045
"937","1096 S.highway Drive","Fenton","MO","63026",-90.4674,38.5423
"938","2925 N Hwy 67","Florissant","MO","63033",-90.3009,38.8081
"939","5789 Campus Pkwy","Hazelwood","MO","63042",-90.3873,38.7742
"940","2500 Sm 291 Hwy","Independence","MO","64055",-94.3802,39.0746
"941","3939 S Noland","Independence","MO","64108",-94.415,39.0494
"942","3602 Range Line Road","Joplin","MO","64801",-94.4785,37.0502
"943","11570 Hwy Ff","Joplin","MO","64804",-94.5177,37.066
"944","1600 Broadway Blvd","Kansas City","MO","64108",-94.5887,39.095
"945","6887 E Front St","Kansas City","MO","64120",-94.5012,39.1301
"946","3832 Blue Ridge Cutoff","Kansas City","MO","64133",-94.5403,39.0362
"947","3294 Gold Rd","Kingdom City","MO","65262",-91.9404,38.9429
"948","1300 Lake St Louis Blvd","Lake St Louis","MO","63367",-90.7676,38.8027
"949","1320 S Jefferson Ave","Lebanon","MO","65536",-92.6495,37.6681
"950","12319 Dorsett Road","Maryland Heights","MO","63043",-90.4486,38.7145
"951","703 State Hwy 80","Matthews","MO","63867",-89.5427,36.7592
"952","2117 Taney St","N Kansas City","MO","64116",-94.5587,39.1456
"953","3001 Lusk Drive","Neosho","MO","64850",-94.3944,36.8415
"954","1140 Technology Dr","O'fallon","MO","63368",-90.7059,38.7162
"955","21921 S East Outer Road","Peculiar","MO","64078",-94.4545,38.7245
"956","8810 E 350 Hwy","Raytown","MO","64133",-94.4766,38.9958
"957","1419 Martin Springs Rd","Rolla","MO","65401",-91.7912,37.9431
"958","2401 W Broadway","Sedalia","MO","65301",-93.2546,38.7052
"959","4760 S Campbell Ave","Springfield","MO","65807",-93.2963,37.1282
"960","1423 S 5th Street","St Charles","MO","63301",-90.4929,38.7712
"961","4015 Frederick Blvd","St Joseph","MO","64506",-94.7966,39.777
"962","11266 Midland Blvd","St Louis","MO","63114",-90.4072,38.7066
"963","6441 S Lindberg Blvd","St Louis","MO","63123",-90.3391,38.5129
"964","10575 Watson Rd","St Louis","MO","63127",-90.4052,38.5556
"965","1515 S Hampton Ave","St Louis","MO","63139",-90.2882,38.6238
"966","3939 Veterans","St Peters","MO","63376",-90.5669,38.7922
"967","231 St Robert Blvd","St Robert","MO","65584",-92.1579,37.8252
"968","825 North Loop Drive","Sullivan","MO","63080",-91.1571,38.226
"969","1 Merlin Drive","Troy","MO","63379",-90.9685,38.9868
"970","#1 Camp Branch Rd","Warrenton","MO","63383",-91.2275,38.8398
"971","429 E Veterans Memorial","Warrenton","MO","63383",-91.1446,38.8193
"972","102 Fore Drive","Wayland","MO","63472",-91.5804,40.3947
"973","1839 Highway 1 South","Greenville","MS","38701",-91.04,33.3715
"974","9351 Canal Rd","Gulfport","MS","39503",-89.1367,30.4213
"975","7541 N Washington Street","Ocean Springs","MS","39564",-88.8419,30.4513
"976","685 Hwy 80 East","Pearl","MS","39208",-90.1607,32.2767
"977","500 Highway 12 E","Starkville","MS","39759",-88.8077,33.4545
"978","501 N 27th St","Billings","MT","59101",-108.5079,45.7861
"979","2010 Overland Ave","Billings","MT","59102",-108.5666,45.7546
"980","3715 31st Street Sw","Great Falls","MT","59404",-111.3596,47.4705
"981","2922 Brooks St","Missoula","MT","59801",-114.0253,46.8438
"982","1 Regent Park Boulevard","Asheville","NC","28806",-82.582,35.5888
"983","7135 Nc #4","Battleboro","NC","27809",-77.8158,36.0605
"984","581 South Highway 9","Black Mountain","NC","28711",-82.319,35.6082
"985","4541 Sunset Rd","Charlotte","NC","28216",-80.8513,35.3069
"986","516 Tyvola Rd","Charlotte","NC","28217",-80.8861,35.1635
"987","University of North Carolina At","Charlotte","NC","28223",-80.7286,35.3076
"988","8031 Concord Mills Blvd","Concord","NC","28027",-80.7162,35.3703
"989","7021 Highway 751, #901","Durham","NC","27707",-78.9597,35.9202
"990","5505 Raeford Rd","Fayetteville","NC","28304",-78.975,35.0442
"991","808 S Memorial Dr","Greenville","NC","27834",-77.3959,35.6052
"992","1043 Jimmie Kerr Road","Haw River","NC","27258",-79.3521,36.0702
"993","1524 Dabney Dr","Henderson","NC","27536",-78.4346,36.3323
"994","1550 Four Seasons","Hendersonville","NC","28792",-82.4487,35.3323
"995","2207 N Marine Blvd","Jacksonville","NC","28546",-77.3859,34.7823
"996","1800 Princeton-Kenly Road","Kenly","NC","27542",-78.1452,35.5748
"997","975 S Main St","Kernersville","NC","27284",-80.0942,36.1091
"998","101 Wintergreen Dr","Lumberton","NC","28358",-79.0038,34.6678
"999","378 West Plaza Drive","Mooresville","NC","28117",-80.8567,35.5936
"1000","1209 Burkemount Avenue","Morganton","NC","28655",-81.6945,35.7181
"1001","4380 Fayetteville Rd","Raleigh","NC","27603",-78.6538,35.7204
"1002","3215 Wake Forest Rd","Raleigh","NC","27609",-78.6208,35.8265
"1003","55 Jr Road","Selma","NC","27576",-78.2871,35.5178
"1004","2025 E Dixon Blvd","Shelby","NC","28150",-81.4817,35.2666
"1005","2020 Highway 172","Sneads Ferry","NC","28460",-77.4301,34.55
"1006","1493 Us Hwy 74-A Bypass","Spindale","NC","28160",-81.8917,35.3327
"1007","103 Sedgehill Dr","Thomasville","NC","27360",-80.0726,35.8622
"1008","1201 S College Road","Wilmington","NC","28403",-77.8862,34.2142
"1009","2806 Raleigh Rd Parkway W","Wilson","NC","27893",-77.9554,35.7383
"1010","405 S 7th St","Bismarck","ND","58504",-100.7817,46.802
"1011","4437 13th Ave Sw","Fargo","ND","58103",-96.8602,46.8619
"1012","3770 32nd Avenue S","Grand Forks","ND","58201",-97.0825,47.8895
"1013","2701 S Broadway","Minot","ND","58701",-101.296,48.2035
"1014","3333 Ramada Road","Grand Island","NE","68801",-98.3428,40.8875
"1015","15010 South State Hwy 31","Gretna","NE","68028",-96.2418,41.137
"1016","3400 Newberry Road","North Platte","NE","69101",-100.7255,41.1018
"1017","201 Chuck Wagon Rd","Ogallala","NE","69153",-101.7149,41.1175
"1018","3509 S 84th St","Omaha","NE","68124",-96.0429,41.2263
"1019","34 Gusabel Avenue","Nashua","NH","03063",-71.4959,42.7674
"1020","92 Cluff Crossing Rd","Salem","NH","03079",-71.2185,42.7653
"1021","261 Plainfield Road","W Lebanon","NH","03784",-72.3239,43.6268
"1022","1286 St Georges Ave","Avenel","NJ","07001",-74.2933,40.5827
"1023","221 Us Hwy 130","Bordentown","NJ","08505",-74.7016,40.1441
"1024","326 Slapes Corner Road","Carney's Point","NJ","08069",-75.4841,39.6851
"1025","1410 Blackwood Clementon Rd","Clementon","NJ","08021",-75.0389,39.8034
"1026","752 Hwy #18","East Brunswick","NJ","08816",-74.3811,40.4261
"1027","242 E White Horse Pike","Galloway","NJ","08205",-74.5282,39.4459
"1028","335 Tilton Rd","Northfield","NJ","08225",-74.5568,39.3862
"1029","5550 Route 42","Turnersville","NJ","08012",-75.0472,39.7584
"1030","1001 W Landis Ave","Vineland","NJ","08360",-75.0446,39.4871
"1031","3513 S Delsea Dr","Vineland","NJ","08360",-75.0409,39.4357
"1032","930 S White Sands","Alamogordo","NM","88310",-105.9602,32.8809
"1033","9911 Avalon Rd Nw","Albuquerque","NM","87105",-106.7459,35.0784
"1034","1620 Towne Center Lane S.e","Albuquerque","NM","87106",-106.6298,35.0592
"1035","5201 San Antonio Drive","Albuquerque","NM","87109",-106.5864,35.1602
"1036","2400 San Mateo Blvd Ne","Albuquerque","NM","87110",-106.5878,35.1055
"1037","11261 Menaul Blvd Ne","Albuquerque","NM","87112",-106.516,35.1089
"1038","1602 Coors Road Nw","Albuquerque","NM","87121",-106.7057,35.1034
"1039","254 Us 550","Bernalillo","NM","87004",-106.5411,35.3175
"1040","810 W Pierce St","Carlsbad","NM","88220",-104.2357,32.4357
"1041","3501 N Prince St","Clovis","NM","88101",-103.1965,34.4339
"1042","120 N Platinum","Deming","NM","88030",-107.7562,32.2691
"1043","60 State Road 344","Edgewood","NM","87013",-106.1915,35.0695
"1044","600 Scott Ave","Farmington","NM","87401",-108.1897,36.7306
"1045","3810 E Hwy 66","Gallup","NM","87301",-108.7309,35.519
"1046","836 N Us 491","Gallup","NM","87301",-108.7589,35.5341
"1047","1700 Sidney Dr","Grants","NM","87020",-107.827,35.1251
"1048","5114 N Lovington Highway","Hobbs","NM","88240",-103.1778,32.7576
"1049","1 Giant Crossing","Jamestown","NM","87347",-108.4373,35.4785
"1050","740 S Main St","Las Cruces","NM","88001",-106.7777,32.3035
"1051","3901 Bataan Memorial Hwy West","Las Cruces","NM","88012",-106.7234,32.3824
"1052","11 Old Highway 70","Lordsburg","NM","88045",-108.9831,32.6111
"1053","1875 Emilio Lopez Loop","Los Lunas","NM","87031",-106.7568,34.815
"1054","430 Clayton Rd","Raton","NM","87740",-104.4357,36.885
"1055","2200 N Main St","Roswell","NM","88220",-104.5231,33.4187
"1056","26137 W Hwy 70","Ruidoso Downs","NM","88346",-105.587,33.3328
"1057","3004 Cerrillos Rd","Santa Fe","NM","87507",-105.9929,35.6545
"1058","2255 N Date St","Truth or Consequences","NM","87901",-107.2492,33.1554
"1059","2021 S Mountain Rd","Tucumcari","NM","88401",-103.7025,35.1521
"1060","900 Hwy 95 North","Beatty","NV","89003",-116.7518,36.9157
"1061","2299 N Carson St","Carson City","NV","89706",-119.7675,39.1815
"1062","2405 Moutain City Hwy","Elko","NV","89801",-115.7906,40.8369
"1063","480 Truck Inn Way","Fernley","NV","89408",-119.2179,39.6149
"1064","1201 W Warm Springs Rd","Henderson","NV","89014",-115.0375,36.0562
"1065","1 Main St","Jean","NV","89019",-115.3291,35.7781
"1066","5585 Simmons St","Las Vegas","NV","89031",-115.18,36.2614
"1067","450 Fremont Street","Las Vegas","NV","89101",-115.1413,36.1695
"1068","6300 W Charleston #110","Las Vegas","NV","89102",-115.2323,36.1592
"1069","3330 W Tropicana Avenue","Las Vegas","NV","89103",-115.184,36.1007
"1070","5045 W Tropicana","Las Vegas","NV","89103",-115.21,36.1008
"1071","1826 S Las Vegas Blvd","Las Vegas","NV","89104",-115.1537,36.1494
"1072","3001 S Las Vegas Blvd","Las Vegas","NV","89109",-115.1643,36.133
"1073","3081 S Maryland Park","Las Vegas","NV","89109",-115.1369,36.1339
"1074","3397 S Las Vegas Blvd","Las Vegas","NV","89109",-115.1719,36.1212
"1075","3771 S Las Vegas Blvd","Las Vegas","NV","89109",-115.1728,36.1039
"1076","310 N Nellis Blvd","Las Vegas","NV","89110",-115.0621,36.1645
"1077","8000 W Sahara Ave","Las Vegas","NV","89117",-115.2655,36.1439
"1078","2380 E Tropicana Ave","Las Vegas","NV","89119",-115.1192,36.1001
"1079","7200 S Las Vegas Blvd","Las Vegas","NV","89119",-115.1723,36.0583
"1080","5318 Boulder Highway","Las Vegas","NV","89122",-115.0572,36.1062
"1081","9320 S Eastern Ave","Las Vegas","NV","89123",-115.1185,36.0201
"1082","7341 W Lake Mead Blvd","Las Vegas","NV","89128",-115.2523,36.196
"1083","7071 W Craig Rd, #101","Las Vegas","NV","89129",-115.2494,36.2405
"1084","9310 W Tropicana Ave","Las Vegas","NV","89147",-115.2948,36.1
"1085","Nellis Air Force Base","Las Vegas","NV","89191",-115.14,36.1719
"1086","2700 S Casino Dr","Laughlin","NV","89029",-114.5759,35.1503
"1087","3230 Losee Rd","N Las Vegas","NV","89030",-115.1265,36.2185
"1088","4280 W Craig Rd","N Las Vegas","NV","89031",-115.1981,36.2392
"1089","2400 North Rancho Dr","N Las Vegas","NV","89130",-115.1966,36.2003
"1090","240 S Nevada Hwy 160","Pahrump","NV","89048",-115.9878,36.2111
"1091","31900 S Las Vegas Blvd","Primm","NV","89019",-115.3874,35.6114
"1092","1100 E Plumb Lane","Reno","NV","89502",-119.7838,39.5059
"1093","680 N Wells Ave","Reno","NV","89512",-119.8033,39.5356
"1094","205 Nugget Ave","Sparks","NV","89431",-119.7456,39.5342
"1095","114 Wolf Road","Albany","NY","12205",-73.8078,42.7178
"1096","3920 Maple Road","Amherst","NY","14226",-78.8172,42.9909
"1097","176 Grant Ave","Auburn","NY","13021",-76.5492,42.9464
"1098","364 W Main St","Batavia","NY","14020",-78.2017,43.0044
"1099","1250 Upper Front St","Binghamton","NY","13901",-75.896,42.1573
"1100","805 Pennsylvania Ave","Brooklyn","NY","11207",-73.8901,40.658
"1101","2215 Delaware Ave","Buffalo","NY","14216",-78.8681,42.9444
"1102","4445 Main St","Buffalo","NY","14226",-78.7857,42.9635
"1103","5300 W Genessee St","Camillus","NY","13031",-76.269,43.0413
"1104","160 Eastern Blvd","Canandaigua","NY","14424",-77.2627,42.8784
"1105","371 Old Country Road","Carle Place","NY","11514",-73.6025,40.7454
"1106","255 Centereach Mall","Centereach","NY","11720",-73.0743,40.86
"1107","4610 Genesee St","Cheektowaga","NY","14225",-78.7156,42.9347
"1108","7873 Brewerton Road","Cicero","NY","13212",-76.1249,43.1511
"1109","8484 Allegheny Road","Corfu","NY","14036",-78.4058,42.9575
"1110","1 River St","Cortland","NY","13045",-76.1672,42.6066
"1111","126 Troy Rd","E Greenbush","NY","12061",-73.7012,42.6232
"1112","4 Perinton Hills Mall","Fairport","NY","14450",-77.4444,43.0682
"1113","963 Hempstead Turnpike","Franklin Square","NY","11010",-73.6758,40.7075
"1114","10390 Bennet Road","Fredonia","NY","14063",-79.3096,42.4536
"1115","4240 Lakeville Road","Geneseo","NY","14454",-77.7887,42.7971
"1116","813 Canandaigua Rd","Geneva","NY","14456",-77.0137,42.8569
"1117","5092 Camp Rd","Hamburg","NY","14075",-78.8541,42.7491
"1118","701 Mohawk St","Herkimer","NY","13350",-74.9925,43.0188
"1119","950 Chemung St","Horseheads","NY","14845",-76.8372,42.1588
"1120","323 Elmira Rd","Ithaca","NY","14850",-76.5113,42.4264
"1121","8710 Northern Blvd","Jackson Heights","NY","11372",-73.8806,40.756
"1122","4757 Transit Rd","Lancaster","NY","14043",-78.697,42.8675
"1123","697 Troy-Schenectady Rd","Latham","NY","12110",-73.7754,42.7559
"1124","5699 Transit Road","Lockport","NY","14094",-78.6969,43.1487
"1125","411 Route 211 East","Middletown","NY","10940",-74.3867,41.4558
"1126","201 Lawrence Road","N Syracuse","NY","13212",-76.144,43.1151
"1127","8548 Seneca Turnpike","New Hartford","NY","13413",-75.316,43.0792
"1128","150 Nassau St","New York","NY","10038",-74.0059,40.7116
"1129","1283 Rt 300","Newburgh","NY","12550",-74.0683,41.5071
"1130","443 Main St","Niagara Falls","NY","14301",-79.0627,43.0894
"1131","8020 Niagara Falls","Niagara Falls","NY","14304",-78.9715,43.0893
"1132","1143 Deer Park Ave","North Babylon","NY","11703",-73.3203,40.7354
"1133","1078 Glenwood Avenue","Oneida","NY","13421",-75.6411,43.077
"1134","4979 State Hwy 23","Oneonta","NY","13820",-75.0483,42.4482
"1135","3165 South Western Blvd","Orchard Park","NY","14127",-78.7473,42.7988
"1136","118 Victory Highway","Painted Post","NY","14870",-77.107,42.1712
"1137","248 Quaker Rd","Queensbury","NY","12804",-73.6502,43.3323
"1138","911 Jefferson Road","Rochester","NY","14623",-77.6175,43.0872
"1139","2890 W Ridge Road","Rochester","NY","14626",-77.7054,43.2103
"1140","200 S James St","Rome","NY","13440",-75.4588,43.2095
"1141","468 Louden Road","Saratoga Springs","NY","12866",-73.7446,43.0981
"1142","60 Nott Terrace","Schenectady","NY","12308",-73.9339,42.8137
"1143","6591 Thompson Road","Syracuse","NY","13206",-76.0922,43.0898
"1144","103 Elwood Davis Road","Syracuse","NY","13212",-76.1712,43.0934
"1145","3414 Erie Blvd","Syracuse","NY","13214",-76.0699,43.0471
"1146","180 N Genesee St","Utica","NY","13501",-75.2182,43.1101
"1147","4024 Vestal Parkway East","Vestal","NY","13850",-75.9768,42.0958
"1148","7503 Main St - Fisher","Victor","NY","14564",-77.447,43.0087
"1149","1881 Ridge Road","W Seneca","NY","14224",-78.7831,42.8288
"1150","1142 Arsenal St","Watertown","NY","13601",-75.9391,43.9769
"1151","1681 Home Ave","Akron","OH","44310",-81.4852,41.1166
"1152","2943 S Arlington Rd","Akron","OH","44312",-81.4923,40.9915
"1153","900 N Leavitt Avenue","Amherst","OH","44001",-82.2089,41.4175
"1154","738 State Rt 250 E","Ashland","OH","44805",-82.2656,40.8579
"1155","2349 Center Road","Austinburg","OH","44010",-80.8549,41.7881
"1156","4927 Mahoning Ave","Austintown","OH","44515",-80.7486,41.1001
"1157","420 E Main St","Beaverdam","OH","45808",-83.9687,40.8331
"1158","7735 State Rd Rt 37","Berkshire","OH","43074",-82.9226,40.2663
"1159","154 Boardman-Canfield Rd","Boardman Twp","OH","44512",-80.6673,41.0244
"1160","2031 Southgate Parkway","Cambridge","OH","43725",-81.5759,40.0046
"1161","4646 Tuscarawas","Canton","OH","44708",-81.4323,40.7954
"1162","Case Western Reserve University","Cleveland","OH","44106",-81.6106,41.5085
"1163","6850 Brook Park Road","Cleveland","OH","44129",-81.7319,41.4187
"1164","4331 W 150th Street","Cleveland","OH","44135",-81.8012,41.4365
"1165","3025 Olentangy River Road","Columbus","OH","43202",-83.0257,40.0222
"1166","1136 South Main Street","Dayton","OH","45409",-84.187,39.742
"1167","Wright State University","Dayton","OH","45435",-84.0642,39.7801
"1168","640 Tillotson St","Elyria","OH","44035",-82.1131,41.3994
"1169","1051 Interstate Court","Findlay","OH","45840",-83.6706,41.0598
"1170","1750 Cedar Street","Fremont","OH","43420",-83.1338,41.3638
"1171","6207 Wilson Mills Road","Highland Heights","OH","44143",-81.4556,41.539
"1172","2226 North Main","Hubbard","OH","44425",-80.5684,41.1819
"1173","6100 Rockside Rd","Independence","OH","44131",-81.6487,41.3957
"1174","9935 State Route 41","Jeffersonville","OH","43128",-83.5363,39.6452
"1175","720 N Lexington-Springmill Rd","Mansfield","OH","44906",-82.5904,40.7719
"1176","1050 Mt Vernon Ave","Marion","OH","43302",-83.1039,40.5807
"1177","3105 Medina Road","Medina Township","OH","44256",-81.7982,41.1364
"1178","7700 Mentor Avenue","Mentor","OH","44060",-81.3659,41.6596
"1179","10480 Baltimore","Millersport","OH","43046",-82.6006,39.938
"1180","1256 W High Extension","New Philadelphia","OH","44663",-81.473,40.4934
"1181","3960 Everhard Road Nw","North Canton","OH","44709",-81.4208,40.8596
"1182","25912 Lorain Road","North Olmsted","OH","44070",-81.9089,41.4208
"1183","8111 Day Dr","Parma","OH","44129",-81.7408,41.3805
"1184","26415 Warns Rd","Perrysburg","OH","43551",-83.459,41.5344
"1185","1122 Buck Road","Rossford","OH","43460",-83.5646,41.5869
"1186","3321 Milan Road","Sandusky","OH","44870",-82.6829,41.4271
"1187","68296 Red Roof Lane","St Clairsville","OH","43950",-80.8678,40.0755
"1188","9449 State Road 14","Streetsboro","OH","44241",-81.3454,41.2482
"1189","315 W Market Street","Tiffin","OH","44883",-83.1914,41.1132
"1190","6920 W Central Ave","Toledo","OH","43615",-83.7087,41.6743
"1191","34725 Euclid Avenue","Willoughby","OH","44094",-81.4405,41.6248
"1192","4020 Belmont Ave","Youngstown","OH","44505",-80.665,41.1536
"1193","Youngstown State University","Youngstown","OH","44555",-80.6486,41.1061
"1194","10 Airport Rd","Zanesville","OH","43701",-81.8978,39.9655
"1195","2705 W Broadway","Ardmore","OK","73401",-97.1649,34.1734
"1196","1255 W Gentry St","Checotah","OK","74426",-95.5311,35.4719
"1197","1100 E 2nd St","Edmond","OK","73034",-97.4657,35.6528
"1198","2703 S Country Club Rd","El Reno","OK","73036",-97.9726,35.5058
"1199","600 S 69 Bypass","Mcalester","OK","74501",-95.7685,34.9379
"1200","635 South 32nd Street","Muskogee","OK","74401",-95.4026,35.7471
"1201","315 S Meridian Avenue","Oklahoma City","OK","73108",-97.6012,35.4639
"1202","3030 South I-35","Oklahoma City","OK","73129",-97.4862,35.4308
"1203","3130 Douglas Blvd","Oklahoma City","OK","73150",-97.3708,35.4344
"1204","1617 Sw 74th Street","Oklahoma City","OK","73159",-97.5462,35.3917
"1205","385 Mid America Drive","Pryor","OK","74361",-95.3394,36.2282
"1206","2400 South 4th Route","Sayre","OK","73662",-99.6247,35.3057
"1207","4903 N Harrison","Shawnee","OK","74801",-96.912,35.3849
"1208","45 North Sheridan Road","Tulsa","OK","74115",-95.9046,36.1616
"1209","121 North 129 East Ave","Tulsa","OK","74116",-95.8334,36.1627
"1210","3435 Se Spicer Dr","Albany","OR","97321",-123.0599,44.6286
"1211","1369 Se 1st Ave","Canby","OR","97013",-122.6788,45.2674
"1212","15815 Se 82nd Dr","Clackamas","OR","97015",-122.5688,45.4088
"1213","3652 Glenwood Dr","Eugene","OR","97403",-123.0408,44.0344
"1214","115 Ne Morgan Lane","Grants Pass","OR","97526",-123.3224,42.4623
"1215","12101 Se 82nd Ave","Happy Valley","OR","97086",-122.5791,45.4352
"1216","2265 Hwy 395 S","Hermiston","OR","97838",-119.2582,45.8153
"1217","2947 S 6th St","Klamath Falls","OR","97603",-121.7528,42.2092
"1218","2604 Island Ave","La Grande","OR","97850",-118.0701,45.3329
"1219","2260 Biddle Road","Medford","OR","97504",-122.8741,42.3496
"1220","800 John Long Rd","Oakland","OR","97462",-123.288,43.5389
"1221","76 E Goodfellow St","Ontario","OR","97914",-116.9435,44.0253
"1222","610 Tutuilla Rd","Pendleton","OR","97801",-118.8057,45.6609
"1223","10428 S E Stark","Portland","OR","97216",-122.5561,45.5187
"1224","11950 N Center Street","Portland","OR","97217",-122.6813,45.6093
"1225","8787 Sw Scholls Ferry Rd","Portland","OR","97223",-122.7828,45.4562
"1226","425 Ne Hassalo St","Portland","OR","97232",-122.6614,45.5308
"1227","350 W Harvard","Roseburg","OR","97470",-123.3521,43.2128
"1228","3155 Ryan Dr Se","Salem","OR","97301",-122.9971,44.9198
"1229","3680 Market St Ne","Salem","OR","97301",-122.9874,44.9502
"1230","987 Kruse Way","Springfield","OR","97477",-123.0407,44.0826
"1231","1710 W 6th Ave","The Dalles","OR","97058",-121.2058,45.6101
"1232","2230 Main Avenue North","Tillamook","OR","97141",-123.8443,45.4728
"1233","2919 Newberg Hwy","Woodburn","OR","97071",-122.876,45.151
"1234","1871 Catasauqua Road","Allentown","PA","18109",-75.4303,40.6412
"1235","220 Park Hills Plz","Altoona","PA","16602",-78.406,40.47
"1236","4276 Business Route 220","Bedford","PA","15522",-78.5017,40.0168
"1237","855 Rostraver Rd","Belle Vernon","PA","15012",-79.8428,40.1375
"1238","131 Papermill Rd","Bloomsburg","PA","17815",-76.4291,41.0258
"1239","16414 Lincoln Hwy","Breezewood","PA","15533",-78.2403,39.9994
"1240","246 Allegheny Blvd","Brookville","PA","15825",-79.0982,41.1734
"1241","1501 Harrisburg Pike","Carlisle","PA","17015",-77.1239,40.2341
"1242","1071 Wayne Avenue","Chambersburg","PA","17201",-77.6502,39.9106
"1243","5321 Baltimore Pike","Clifton Heights","PA","19018",-75.2946,39.9303
"1244","1346 Old Freedom Rd","Cranberry Township","PA","16066",-80.1032,40.6855
"1245","47 Industrial Highway","Essington","PA","19029",-75.3042,39.8669
"1246","200 West Drive","Greensburg","PA","15601",-79.5761,40.3061
"1247","84 Rt 93","Hazleton","PA","18202",-76.0249,40.9819
"1248","2079 E State St","Hermitage","PA","16148",-80.4704,41.2334
"1249","9174 Lincoln Hwy","Irwin","PA","15642",-79.6946,40.3214
"1250","3156 Elton Road","Johnstown","PA","15904",-78.8475,40.2798
"1251","2204 Columbia Ave","Lancaster","PA","17603",-76.3644,40.0397
"1252","640 East Lincoln Highway","Langhorne","PA","19047",-74.9053,40.1633
"1253","3870 Route 30","Latrobe","PA","15650",-79.382,40.2862
"1254","5505 Carlisle Pike","Mechanicsburg","PA","17050",-76.9842,40.2403
"1255","5609 Nittany Valley Drive","Mill Hall","PA","17751",-77.523,41.0263
"1256","3980 William Penn Highway","Monroeville","PA","15146",-79.7728,40.4383
"1257","1829 Lincoln Highway","N Versailles","PA","15137",-79.7804,40.3682
"1258","209 Tarentum Bridge","New Kensington","PA","15068",-79.752,40.5922
"1259","1623 Oliver Road","New Milford","PA","18834",-75.6811,41.8242
"1260","2180 Greentree Rd","Pittsburgh","PA","15220",-80.0728,40.3912
"1261","271 Clairton Blvd","Pittsburgh","PA","15236",-79.9514,40.3377
"1262","7319 McKnight Rd","Pittsburgh","PA","15237",-80.0114,40.5381
"1263","2701 Freeport Rd","Pittsburgh","PA","15238",-79.8347,40.5378
"1264","449 Pennsylvania 315","Pittston","PA","18640",-75.7551,41.3151
"1265","410 Scranton Carbondale Hwy","Scranton","PA","18508",-75.6547,41.4623
"1266","973 N Susquehanna Trail","Selinsgrove","PA","17870",-76.8462,40.8248
"1267","122 Fitz Henry Road","Smithton","PA","15479",-79.7332,40.1703
"1268","1860 N Atherton St","State College","PA","16801",-77.8321,40.785
"1269","2200 Lebanon Church Road","W Mifflin","PA","15122",-79.944,40.3484
"1270","1395 W Chestnut St","Washington","PA","15301",-80.2741,40.1645
"1271","488 Kidder St","Wilkes-Barre","PA","18702",-75.8549,41.2502
"1272","1716 E 3rd St","Williamsport","PA","17701",-76.9711,41.2502
"1273","1199 Louck Road","York","PA","17404",-76.7581,39.9786
"1274","785 Centre of New England Blvd","Coventry","RI","02816",-71.55,41.6615
"1275","1177 Reservoir Ave","Cranston","RI","02920",-71.4552,41.7693
"1276","1450 Hartford Ave","Johnston","RI","02919",-71.5015,41.8245
"1277","44 Dowling Village Blvd","N Smithfield","RI","02896",-71.5456,41.9763
"1278","444 Quaker Lane, #5","Warwick","RI","02886",-71.5004,41.6825
"1279","3401 Clemson Boulevard","Anderson","SC","29621",-82.6705,34.5464
"1280","1011 N Mountain St","Blacksburg","SC","29702",-81.5092,35.1461
"1281","115 Sloan Garden Road","Boiling Springs","SC","29316",-81.956,35.0111
"1282","5901 Fairfield Dr","Columbia","SC","29203",-81.0227,34.0644
"1283","342 Harbison Blvd","Columbia","SC","29212",-81.1546,34.0755
"1284","2521 Wade Hampton","Greenville","SC","29615",-82.3444,34.8936
"1285","800 S Kings Hwy","Myrtle Beach","SC","29577",-78.8971,33.6806
"1286","124 Loyola Drive","Myrtle Beach","SC","29588",-78.9903,33.6411
"1287","2280 Ashley Phosphate Rd","N Charleston","SC","29406",-80.0443,32.9355
"1288","730 Highway 17 South","N Myrtle Beach","SC","29582",-78.6859,33.8234
"1289","5270 International Blvd","North Charleston","SC","29418",-80.0285,32.869
"1290","2435 Mt Holly Road","Rock Hill","SC","29730",-81.0068,34.8548
"1291","2306 Reidville Road","Spartanburg","SC","29301",-81.993,34.9207
"1292","113 Motel Drive","St George","SC","29477",-80.6026,33.1948
"1293","1200 Us Highway 17 North","Surfside Beach","SC","29575",-78.9727,33.6211
"1294","2514 Sunset Blvd","West Columbia","SC","29169",-81.1087,34.0035
"1295","3536 Point South Dr","Yemassee","SC","29945",-80.8553,32.6964
"1296","2206 North Lacross Dr","Rapid City","SD","57701",-103.2032,44.107
"1297","4001 E 10th St","Sioux Falls","SD","57103",-96.6776,43.5455
"1298","5201 Granite Lane","Sioux Falls","SD","57107",-96.766,43.6018
"1299","1011 Paul Huff Highway","Cleveland","TN","37312",-84.8681,35.2132
"1300","1420 Hwy 96 North","Fairview","TN","37062",-87.1716,36.0253
"1301","28 San Pebble Road","Jackson","TN","38305",-88.8236,35.675
"1302","800 Watt Rd","Knoxville","TN","37932",-84.2374,35.88
"1303","7065 Winchester Rd","Memphis","TN","38125",-89.8276,35.0491
"1304","2480 Parkway","Pigeon Forge","TN","37863",-83.578,35.8086
"1305","3716 Parkway","Pigeon Forge","TN","37863",-83.5497,35.7812
"1306","120 East I-20","Abilene","TX","79601",-99.6435,32.4394
"1307","3314 S Clack Street","Abilene","TX","79601",-99.7728,32.4106
"1308","209 Central Expressway N","Allen","TX","75013",-96.6775,33.1041
"1309","1710 I-40 East","Amarillo","TX","79103",-101.8195,35.192
"1310","2116 S Georgia St","Amarillo","TX","79109",-101.8663,35.1926
"1311","9601 I-40 East Exit 76","Amarillo","TX","79111",-101.7245,35.1932
"1312","3001 Mountain Pass Blvd","Anthony","TX","79821",-106.5808,31.9976
"1313","839 N Watson Road","Arlington","TX","76011",-97.0638,32.7562
"1314","4820 W Sublett Road","Arlington","TX","76017",-97.1835,32.6463
"1315","4928 S Cooper","Arlington","TX","76017",-97.1341,32.6671
"1316","1601 Ih35 N","Austin","TX","78702",-97.7303,30.2765
"1317","2320 S Interregional","Austin","TX","78704",-97.7419,30.2334
"1318","7619 E Ben White Boulevard","Austin","TX","78741",-97.6916,30.2178
"1319","7100 North I-35","Austin","TX","78752",-97.7049,30.3324
"1320","1876 East Freeway","Baytown","TX","77521",-95.0345,29.7962
"1321","7207 Garth Road","Baytown","TX","77521",-94.9819,29.8056
"1322","1710 E 3rd St","Big Spring","TX","79720",-101.4542,32.26
"1323","435 W Bandera St","Boerne","TX","78006",-98.7232,29.7805
"1324","2951 State Hwy 36 South","Brenham","TX","77833",-96.3955,30.1378
"1325","204 S Waller","Brookshire","TX","77423",-95.9513,29.7812
"1326","1875 N Expressway","Brownsville","TX","78520",-97.504,25.9428
"1327","6131 Paredes Line Rd","Brownsville","TX","78526",-97.4837,25.9883
"1328","2890 Harvey Mitchell Parkway","Bryan","TX","77807",-96.4268,30.7257
"1329","868 Ne Asbury Blvd","Burleson","TX","76028",-97.2305,32.7004
"1330","17400 N Hwy 20","Canton","TX","75103",-95.8624,32.5546
"1331","1058 Us 59 S","Carthage","TX","75633",-94.3191,32.0972
"1332","16851 Interstate Highway 20","Cisco","TX","76437",-98.8997,32.3749
"1333","607 Texas Ave","College Station","TX","77840",-96.3342,30.6272
"1334","2243 Stoneside Rd","Conroe","TX","77303",-95.478,30.3377
"1335","8000 S I-35 East","Corinth","TX","76205",-97.1776,33.2891
"1336","5165 Interstate 37","Corpus Christi","TX","78408",-97.4526,27.8034
"1337","2931 Hwy 77","Corpus Christi","TX","78410",-97.6311,27.8549
"1338","4918 S Padre Island Dr","Corpus Christi","TX","78411",-97.3822,27.714
"1339","2801 South Hwy 287","Corsicana","TX","75110",-96.445,32.0762
"1340","26050 Highway 290","Cypress","TX","77429",-95.6955,29.9727
"1341","4400 N Central Expwy","Dallas","TX","75206",-96.7871,32.8192
"1342","1415 Medical Dist Dr","Dallas","TX","75207",-96.8393,32.8076
"1343","2030 Market Ctr Blvd","Dallas","TX","75207",-96.8247,32.7975
"1344","1641 N Westmoreland Rd","Dallas","TX","75211",-96.8739,32.766
"1345","8233 East R.l Thornton Frwy","Dallas","TX","75228",-96.6993,32.7945
"1346","2425 Walnut Hill Lane","Dallas","TX","75229",-96.8964,32.8811
"1347","10433 N Central Expwy","Dallas","TX","75231",-96.7701,32.8888
"1348","7120 S Cockrell Hill","Dallas","TX","75236",-96.8913,32.6617
"1349","7425 Bonnie View Road","Dallas","TX","75241",-96.7505,32.6565
"1350","13689 N Central Exp","Dallas","TX","75243",-96.7532,32.9348
"1351","9009 Skillman Rd","Dallas","TX","75243",-96.7185,32.8991
"1352","4567 Frankford Road","Dallas","TX","75287",-96.8303,32.9976
"1353","4007 N Interstate 35","Denton","TX","76207",-97.1751,33.2318
"1354","2301 West University Drive","Edinburg","TX","78539",-98.187,26.305
"1355","1305 E Monte Cristo","Edinburg","TX","78542",-98.1445,26.3354
"1356","6144 Gateway E","El Paso","TX","79905",-106.409,31.7811
"1357","510 Zaragosa Rd","El Paso","TX","79907",-106.3215,31.7024
"1358","4690 Woodrow Bean","El Paso","TX","79924",-106.4351,31.8985
"1359","9567 Dyer St","El Paso","TX","79924",-106.4191,31.8838
"1360","6650 Montana Ave","El Paso","TX","79925",-106.3969,31.7895
"1361","1301 North Horizon Blvd","El Paso","TX","79927",-106.2393,31.66
"1362","11045 Gateway W","El Paso","TX","79935",-106.3331,31.7454
"1363","11315 Montwood Dr","El Paso","TX","79936",-106.3019,31.7694
"1364","1613 Pleasanton Road, Suite B-10","El Paso - Ft Bliss","TX","79906",-106.437,31.9225
"1365","301 North I-45","Ennis","TX","75119",-96.6176,32.3365
"1366","1015 Spur 350 West","Euless","TX","76039",-97.0706,32.8373
"1367","3228 Se Loop 820","Forest Hill","TX","76140",-97.276,32.6609
"1368","Hood Main Store/clear Creek Main","Fort Hood","TX","76544",-97.7794,31.1529
"1369","19212 Gulf Fwy","Friendswood","TX","77546",-95.1445,29.5429
"1370","Dallas Parkway & Main St","Frisco","TX","75033",-96.8397,33.1525
"1371","4400 South Freeway","Ft Worth","TX","76115",-97.3212,32.6833
"1372","6737 Camp Bowie Blvd","Ft Worth","TX","76116",-97.4325,32.7215
"1373","4601 S Hulen Rd","Ft Worth","TX","76132",-97.3937,32.6797
"1374","6480 North Frwy","Ft Worth","TX","76137",-97.3137,32.8602
"1375","1410 Seawall Blvd","Galveston","TX","77550",-94.7797,29.2966
"1376","12733 Interstate 635","Garland","TX","75041",-96.6614,32.8648
"1377","457 W Interstate 30","Garland","TX","75043",-96.5943,32.841
"1378","408 Westchase Drive","Grand Prairie","TX","75052",-97.0029,32.6733
"1379","1015 West Main St","Gun Barrel City","TX","75156",-96.1303,32.3308
"1380","4703 S Expressway 77/83","Harlingen","TX","78550",-97.7168,26.1969
"1381","100 Cottonwood","Hempstead","TX","77445",-96.0477,30.1073
"1382","100 Us Highway 79 S","Henderson","TX","75652",-94.7856,32.1511
"1383","2316 Southmore Rd","Houston","TX","77004",-95.3762,29.7217
"1384","7300 Washington Ave","Houston","TX","77007",-95.4303,29.7784
"1385","2120 No Loop West","Houston","TX","77018",-95.4395,29.81
"1386","3332 S Loop W","Houston","TX","77025",-95.4297,29.6784
"1387","11901 E Freeway","Houston","TX","77029",-95.227,29.7722
"1388","1104 N Sam Houston Parkway East","Houston","TX","77032",-95.3713,29.9386
"1389","12501 Gulf Freeway","Houston","TX","77034",-95.2171,29.6176
"1390","9810 Gulf Freeway","Houston","TX","77034",-95.2513,29.6517
"1391","11320 North Freeway","Houston","TX","77037",-95.4113,29.9302
"1392","12862 Nw Freeway","Houston","TX","77040",-95.4949,29.8434
"1393","9766-B Katy Frwy","Houston","TX","77055",-95.5342,29.7851
"1394","2735 Bay Area Blvd","Houston","TX","77058",-95.1063,29.5786
"1395","12697 Gessner Rd","Houston","TX","77064",-95.5453,29.9554
"1396","13031 Fm 1960 W","Houston","TX","77065",-95.6117,29.9187
"1397","6711 Sam Houston Parkway South","Houston","TX","77072",-95.5568,29.7061
"1398","8199 Sw Frwy","Houston","TX","77074",-95.4941,29.7207
"1399","12405 Westheimer Rd","Houston","TX","77077",-95.5982,29.7362
"1400","925 N Wilcrest","Houston","TX","77079",-95.5757,29.7823
"1401","6060 Hillcroft St","Houston","TX","77081",-95.4975,29.7151
"1402","8401 Westheimer Rd","Houston","TX","77083",-95.5142,29.7375
"1403","4999 Hwy 6 N","Houston","TX","77084",-95.6457,29.8498
"1404","6969 Gulf Freeway","Houston","TX","77087",-95.2975,29.7036
"1405","7707 Steubner Airline Rd","Houston","TX","77088",-95.4097,29.8714
"1406","15919 North Freeway","Houston","TX","77090",-95.4262,29.9988
"1407","1760 West Fm 1960","Houston","TX","77090",-95.4564,30.0111
"1408","11099 Nw Frwy","Houston","TX","77092",-95.473,29.828
"1409","19450 Hwy 59","Humble","TX","77338",-95.2698,29.9997
"1410","6920 Fm1960","Humble","TX","77346",-95.3211,30.008
"1411","9655 N Sam Houston Parkway E","Humble","TX","77396",-95.2435,29.935
"1412","3018 W 11th St","Huntsville","TX","77340",-95.569,30.7182
"1413","4115 West Airport","Irving","TX","75062",-97.0069,32.8374
"1414","8120 Esters Blvd","Irving","TX","75063",-97.0079,32.9189
"1415","1702 S Jackson St","Jacksonville","TX","75766",-95.2604,31.9474
"1416","11710 Ih 35","Jarrell","TX","76537",-97.6001,30.8383
"1417","1579 Fry Road","Katy","TX","77449",-95.719,29.7898
"1418","2405 Tex Mati Dr","Katy","TX","77494",-95.8092,29.7811
"1419","6920 S Fry Road","Katy","TX","77494",-95.7764,29.7151
"1420","2200 S Washington Street","Kaufman","TX","75142",-96.3094,32.5743
"1421","209 Sidney Barker St South","Kerrville","TX","78028",-99.1449,30.0436
"1422","4315 Texas State Hwy 42 North","Kilgore","TX","75662",-94.8645,32.4285
"1423","1108 S Fort Hood Rd","Killeen","TX","76541",-97.7471,31.1102
"1424","22671 Eastex Frwy","Kingwood","TX","77339",-95.2541,30.0451
"1425","928 Hwy 146 S","La Porte","TX","77571",-95.0311,29.654
"1426","401-443 This Way St","Lake Jackson","TX","77566",-95.4537,29.0399
"1427","3543 Jim Wright Freeway","Lake Worth","TX","76135",-97.4091,32.8149
"1428","3600 Santa Ursula","Laredo","TX","78041",-99.5034,27.5318
"1429","1011 Beltway Parkway","Laredo","TX","78045",-99.4639,27.686
"1430","2940 South Highway 45","League City","TX","77573",-95.0889,29.4945
"1431","2267 S Stemmons Freeway","Lewisville","TX","75067",-96.9754,33.0083
"1432","12816 Ih35 N","Live Oak","TX","78233",-98.3472,29.5552
"1433","3126 S Eastman Rd","Longview","TX","75602",-94.7074,32.4553
"1434","607 Avenue Q","Lubbock","TX","79401",-101.8552,33.5901
"1435","4718 Slide Rd","Lubbock","TX","79414",-101.9224,33.5514
"1436","6111 Fm 1488","Magnolia","TX","77354",-95.5598,30.2239
"1437","Highway 360 & E Broad St","Mansfield","TX","76063",-97.0816,32.577
"1438","1110 So 10th St","Mcallen","TX","78501",-98.2318,26.1933
"1439","401 E Nolana Ave","Mcallen","TX","78504",-98.2104,26.2378
"1440","1615 N Central Expressway","Mckinney","TX","75070",-96.6378,33.2129
"1441","11511 W Airport Blvd","Meadows Place","TX","77477",-95.5788,29.6461
"1442","114 Hwy 80","Mesquite","TX","75149",-96.5965,32.7902
"1443","4004 Emporium Circle","Mesquite","TX","75150",-96.6251,32.8114
"1444","3701 W Wall Ave","Midland","TX","79703",-102.1123,31.9802
"1445","116 South Shary Rd","Mission","TX","78572",-98.2884,26.196
"1446","6131 Hwy 6 S","Missouri City","TX","77459",-95.5651,29.5665
"1447","298 W Fm 544","Murphy","TX","75094",-96.6182,33.0114
